ID,Famille,Catégorie,Nom français,Nom court,Type,Numéro,rue,Étage,Bureau,Ville,Code postal,Arrondissement,Classification,Longitude,Latitude
1,Culturel,Établissement culturel,Maison du Meunier,,Musée et centre d'interprétation / d'exposition,10897,Rue du Pont,0, ,Montréal,H2B 1Z4,Ahuntsic-Cartierville,niveau 3,-73.661101796,45.5748620350001
2,Culturel,Établissement culturel,Maison du Pressoir,,Musée et centre d'interprétation / d'exposition,10865,Rue du Pressoir,0, ,Montréal,H2B 2L1,Ahuntsic-Cartierville,niveau 3,-73.659552678,45.5759696870001
3,Commercial,Regroupement de commerces,Marché Central,,Centre commercial,9187,Boulevard de l'Acadie,0, ,Montréal,H4N 3K1,Ahuntsic-Cartierville,niveau 1,-73.654955924,45.534023017
4,Culturel,Établissement culturel,Musée des Sœurs de la Providence,,Musée et centre d'interprétation / d'exposition,12055 ,Rue Grenet,0, ,Montréal,H4J 2J5,Ahuntsic-Cartierville,niveau 3,-73.713635042,45.529374234
5,Récréatif / sportif,Parc et autre espace vert,Parc Ahuntsic,,Parc, , ,0, ,Montréal,H3L 2E5,Ahuntsic-Cartierville,niveau 2,-73.6647101469999,45.555801382
6,Récréatif / sportif,Parc et autre espace vert,Parc Alice-Nolin,,Parc, , ,0, ,Montréal, ,Ahuntsic-Cartierville,niveau 3,-73.670157532,45.5337066550001
7,Récréatif / sportif,Parc et autre espace vert,Parc Avila-Vidal,,Parc, , ,0, ,Montréal, ,Ahuntsic-Cartierville,niveau 2,-73.695670226,45.529510487
8,Récréatif / sportif,Parc et autre espace vert,Parc Basile-Routhier,,Parc, , ,0, ,Montréal,H2C 1A5,Ahuntsic-Cartierville,niveau 2,-73.672148807,45.5578040980001
9,Récréatif / sportif,Parc et autre espace vert,Parc Beau-Bois,,Parc, , ,0, ,Montréal, ,Ahuntsic-Cartierville,niveau 4,-73.7329016699999,45.5179328780001
10,Récréatif / sportif,Parc et autre espace vert,Parc Belmont,,Parc, , ,0, ,Montréal,H4J 2L9,Ahuntsic-Cartierville,niveau 2,-73.725539308,45.5333557000001
11,Récréatif / sportif,Parc et autre espace vert,Parc Berthe-Louard,,Parc, , ,0, ,Montréal,H2M 2A7,Ahuntsic-Cartierville,niveau 2,-73.64231168,45.559207439
12,Récréatif / sportif,Parc et autre espace vert,Parc Camille,,Parc, , ,0, ,Montréal,H4K 1C8,Ahuntsic-Cartierville,niveau 3,-73.7527533539999,45.510433182
13,Récréatif / sportif,Parc et autre espace vert,Parc d'Auteuil,,Parc, , ,0, ,Montréal,H3L 1H4,Ahuntsic-Cartierville,niveau 2,-73.6568060929999,45.5488738920001
14,Récréatif / sportif,Parc et autre espace vert,Parc de Beauséjour,,Parc, , ,0, ,Montréal, ,Ahuntsic-Cartierville,niveau 2,-73.731978516,45.5277061320001
15,Récréatif / sportif,Parc et autre espace vert,Parc de Bordeaux,,Parc, , ,0, ,Montréal, ,Ahuntsic-Cartierville,niveau 2,-73.699797732,45.5418853640001
16,Récréatif / sportif,Parc et autre espace vert,Parc de la Merci,,Parc, , ,0, ,Montréal, ,Ahuntsic-Cartierville,niveau 2,-73.693793398,45.5470580940001
17,Récréatif / sportif,Parc et autre espace vert,Parc de Louisbourg,,Parc, , ,0, ,Montréal, ,Ahuntsic-Cartierville,niveau 2,-73.708060364,45.5285148500001
18,Récréatif / sportif,Parc et autre espace vert,Parc de Mésy,,Parc, , ,0, ,Montréal,H4J 2P4,Ahuntsic-Cartierville,niveau 2,-73.717141548,45.5295890610001
19,Récréatif / sportif,Parc et autre espace vert,Parc de Salaberry,,Parc, , ,0, ,Montréal, ,Ahuntsic-Cartierville,niveau 2,-73.694830995,45.539249408
20,Récréatif / sportif,Parc et autre espace vert,Parc des Bateliers,,Parc, , ,0, ,Montréal,H3M 1A8,Ahuntsic-Cartierville,niveau 4,-73.703246217,45.5443420290001
21,Récréatif / sportif,Parc et autre espace vert,Parc des Hirondelles,,Parc, , ,0, ,Montréal,H2B 1L5,Ahuntsic-Cartierville,niveau 2,-73.6432667839999,45.575725617
22,Récréatif / sportif,Parc et autre espace vert,Parc François-Albert-Angers,,Parc, , ,0, ,Montréal,H2M 2K5,Ahuntsic-Cartierville,niveau 4,-73.642012698,45.5555381680001
23,Récréatif / sportif,Parc et autre espace vert,Parc Gabriel-Lalemant,,Parc, , ,0, ,Montréal, ,Ahuntsic-Cartierville,niveau 2,-73.642640013,45.5703216200001
24,Récréatif / sportif,Parc et autre espace vert,Parc Henri-Julien,,Parc, , ,0, ,Montréal,H2M 1P1,Ahuntsic-Cartierville,niveau 2,-73.649886233,45.5475082310001
25,Récréatif / sportif,Parc et autre espace vert,Parc Île Perry,,Parc, , ,0, ,Montréal, ,Ahuntsic-Cartierville,niveau 4,-73.697699648,45.5476035950001
26,Récréatif / sportif,Parc et autre espace vert,Parc J.-J.-Gagnier,,Parc, , ,0, ,Montréal, ,Ahuntsic-Cartierville,niveau 2,-73.648970709,45.5802154460001
27,Récréatif / sportif,Parc et autre espace vert,Parc Jean-Martucci,,Parc, , ,0, ,Montréal, ,Ahuntsic-Cartierville,niveau 2,-73.635336464,45.556079207
28,Récréatif / sportif,Parc et autre espace vert,Parc Jeanne-Sauvé,,Parc, , ,0, ,Montréal,H2C 3H5,Ahuntsic-Cartierville,niveau 2,-73.672116001,45.5567740820001
29,Récréatif / sportif,Parc et autre espace vert,Parc Lefebvre,,Parc, , ,0, ,Montréal, ,Ahuntsic-Cartierville,niveau 2,-73.722540954,45.5273933280001
30,Récréatif / sportif,Parc et autre espace vert,Parc Lomer-Gouin,,Parc, , ,0, ,Montréal,H2B 1W9,Ahuntsic-Cartierville,niveau 2,-73.658835515,45.5731811420001
31,Récréatif / sportif,Parc et autre espace vert,Parc Louis-Hébert,,Parc, , ,0, ,Montréal,H2C 1A9,Ahuntsic-Cartierville,niveau 2,-73.66380225,45.5645446680001
32,Récréatif / sportif,Parc et autre espace vert,Parc Marcelin-Wilson,,Parc, , ,0, ,Montréal,H3M 2T1,Ahuntsic-Cartierville,niveau 2,-73.682303529,45.5361099130001
33,Récréatif / sportif,Parc et autre espace vert,Parc Maurice-Richard,,Parc, , ,0, ,Montréal, ,Ahuntsic-Cartierville,niveau 2,-73.672628456,45.5593626530001
34,Récréatif / sportif,Parc et autre espace vert,Parc Nicolas-Viel,,Parc, , ,0, ,Montréal,H3L 1H9,Ahuntsic-Cartierville,niveau 2,-73.6765204499999,45.551086416
35,Récréatif / sportif,Parc et autre espace vert,Parc Olympia-Gouin,,Parc, , ,0, ,Montréal, ,Ahuntsic-Cartierville,niveau 2,-73.663971602,45.563951107
36,Récréatif / sportif,Parc et autre espace vert,Parc Raimbault,,Parc, , ,0, ,Montréal, ,Ahuntsic-Cartierville,niveau 2,-73.717574219,45.536560046
37,Récréatif / sportif,Parc et autre espace vert,Parc Rosanne-Laflamme,,Parc, , ,0, ,Montréal, ,Ahuntsic-Cartierville,niveau 4,-73.699744323,45.5276527280001
38,Récréatif / sportif,Parc et autre espace vert,Parc Saint-Alphonse,,Parc, , ,0, ,Montréal,H2M 1X5,Ahuntsic-Cartierville,niveau 2,-73.6388693869999,45.548816672
39,Récréatif / sportif,Parc et autre espace vert,Parc Saint-André-Apôtre,,Parc, , ,0, ,Montréal, ,Ahuntsic-Cartierville,niveau 2,-73.671742947,45.546525956
40,Récréatif / sportif,Parc et autre espace vert,Parc Saint-Benoit,,Parc, , ,0, ,Montréal, ,Ahuntsic-Cartierville,niveau 2,-73.665701966,45.5410118010001
41,Récréatif / sportif,Parc et autre espace vert,Parc Sainte-Odile,,Parc, , ,0, ,Montréal, ,Ahuntsic-Cartierville,niveau 2,-73.707745068,45.535498563
42,Récréatif / sportif,Parc et autre espace vert,Parc Saint-Paul-de-la-Croix,,Parc, , ,0, ,Montréal, ,Ahuntsic-Cartierville,niveau 2,-73.6526328159999,45.560367575
43,Récréatif / sportif,Parc et autre espace vert,Parc Saint-Simon-Apôtre,,Parc, , ,0, ,Montréal, ,Ahuntsic-Cartierville,niveau 2,-73.6483985,45.540321341
44,Récréatif / sportif,Parc et autre espace vert,Parc du Sault-au-Récollet,,Parc, , ,0, ,Montréal, ,Ahuntsic-Cartierville,niveau 2,-73.653179204,45.570552897
45,Récréatif / sportif,Parc et autre espace vert,Parc Tolhurst,,Parc, , ,0, ,Montréal,H3L 1B9,Ahuntsic-Cartierville,niveau 2,-73.665305238,45.5440368550001
46,Récréatif / sportif,Parc et autre espace vert,Parc Victor-Barbeau,,Parc, , ,0, ,Montréal, ,Ahuntsic-Cartierville,niveau 2,-73.631165987,45.556930358
47,Récréatif / sportif,Parc et autre espace vert,Parc Zotique-Racicot,,Parc, , ,0, ,Montréal,H3L 3M7,Ahuntsic-Cartierville,niveau 2,-73.688963991,45.5426635630001
48,Récréatif / sportif,Parc et autre espace vert,Parc-école Gilles Vigneault,,Parc, , ,0, ,Montréal,H3M 1Z7,Ahuntsic-Cartierville,niveau 3,-73.691867783,45.5314082370001
50,Récréatif / sportif,Parc et autre espace vert,Parc-nature de Bois-de-Saraguay,,Parc, , ,0, ,Montréal,H4K 1C2,Ahuntsic-Cartierville,niveau 1,-73.74034796,45.5153350690001
51,Récréatif / sportif,Parc et autre espace vert,Parc-nature de l'ile-de-la-Visitation,,Parc, ,Boulevard Gouin Est,0, ,Montréal,H2B 1X7,Ahuntsic-Cartierville,niveau 1,-73.6597815599999,45.577690116
52,Récréatif / sportif,Équipement sportif et récréatif,Aréna Ahuntsic,,Centre sportif intérieur,10560,Rue Saint-Hubert,0, ,Montréal,H2C 2H7,Ahuntsic-Cartierville,niveau 3,-73.6640667739999,45.5571553290001
53,Récréatif / sportif,Équipement sportif et récréatif,Aréna Marcelin-Wilson,,Centre sportif intérieur,11301,Boulevard de l'Acadie,0, ,Montréal,H3M 2T1,Ahuntsic-Cartierville,niveau 2,-73.684897523,45.536678303
54,Récréatif / sportif,Équipement sportif et récréatif,Aréna Michel-Normandin,,Centre sportif intérieur,850,Avenue Émile-Journault,0, ,Montréal,H2M 2E2,Ahuntsic-Cartierville,niveau 3,-73.637381655,45.5513687050001
55,Récréatif / sportif,Parc et autre espace vert,Boisé-de-Saint-Sulpice,,Parc, , ,0, ,Montréal, ,Ahuntsic-Cartierville,niveau 2,-73.639739139,45.5545005720001
56,Service public,Transport,Pôle Promenade Fleury,,Pôle de mobilité, , ,0, ,Montréal, ,Ahuntsic-Cartierville,niveau 3,-73.658846881,45.5584489600001
57,Service public,Transport,Pôle Terminus Henri-Bourassa,,Pôle de mobilité, , ,0, ,Montréal, ,Ahuntsic-Cartierville,niveau 3,-73.6673268119999,45.5563593960001
58,Service public,Service gouvernemental,Carrefour Jeunesse Emploi Ahuntsic-Bordeaux-Cartierville,Carrefour Jeunesse-Emploi,Centre de service gouvernemental,10794,Rue Lajeunesse,0, ,Montréal,H3L 2E8,Ahuntsic-Cartierville,niveau 2,-73.669979232,45.555562476
59,Service public,Service d'urgence,Poste de quartier 10,,Police de quartier,11756,Boulevard O'Brien,0, ,Montréal,H4J 1Y8,Ahuntsic-Cartierville,niveau 3,-73.701186278,45.528491962
60,Service public,Service d'urgence,Poste de quartier 27,,Police de quartier,1805,Rue Fleury Est,0, ,Montréal,H2B 1H7,Ahuntsic-Cartierville,niveau 3,-73.653525456,45.568489066
61,Service public,Établissement scolaire,Collège Ahuntsic,,Cégep et université,9155,Rue Saint-Hubert,0, ,Montréal,H2M 1Y8,Ahuntsic-Cartierville,niveau 1,-73.642415461,45.5517100050001
62,Service public,Établissement scolaire,CÉGEP de Bois-de-Boulogne,,Cégep et université,10555,Avenue de Bois de Boulogne,0, ,Montréal,H4N 1L4,Ahuntsic-Cartierville,niveau 1,-73.675795655,45.538066853
63,Service public,Service gouvernemental,Centre local d'emploi d'Ahuntsic,Centre local d'emploi,Centre de service gouvernemental,10520,Boulevard de l'Acadie,0, ,Montréal,H4N 1L9,Ahuntsic-Cartierville,niveau 2,-73.678199261,45.5327927110001
64,Service public,Établissement scolaire,Centre pédagogique Lucien-Guilbault,,École secondaire et professionnelle,3165,Rue de Louvain Est,0, ,Montréal,H1Z 1J7,Ahuntsic-Cartierville,niveau 4,-73.631379772,45.572430576
65,Culturel,Bibliothèque,Bibliothèque d'Ahuntsic,,Bibliothèque publique,10300,Rue Lajeunesse,0, ,Montréal,H3L 2E5,Ahuntsic-Cartierville,niveau 1,-73.662724201,45.5533938390001
66,Culturel,Bibliothèque,Bibliothèque de Cartierville,,Bibliothèque publique,5900,Rue De Salaberry,0, ,Montréal,H4J 1J8,Ahuntsic-Cartierville,niveau 1,-73.712929862,45.527282084
67,Culturel,Bibliothèque,Bibliothèque de Salaberry,,Bibliothèque publique,4170,Rue De Salaberry,0, ,Montréal,H4J 1H1,Ahuntsic-Cartierville,niveau 1,-73.703822383,45.5346211410001
68,Service public,Service de santé,CLSC d'Ahuntsic,,CLSC,1165,Boulevard Henri-Bourassa Est,0, ,Montréal,H2C 3K2,Ahuntsic-Cartierville,niveau 3,-73.666053462,45.561206864
69,Service public,Service de santé,CLSC de Bordeaux-Cartierville,,CLSC,11822,Avenue de Bois-de-Boulogne,0, ,Montréal,H3M 2X6,Ahuntsic-Cartierville,niveau 3,-73.690220822,45.5411281900001
70,Service public,Établissement scolaire,Collège André-Grasset,,Cégep et université,1001,Boulevard Crémazie Est,0, ,Montréal,H2M 1M3,Ahuntsic-Cartierville,niveau 4,-73.63280629,45.5508601670001
71,Service public,Établissement scolaire,Collège Mont-Saint-Louis,,École secondaire et professionnelle,1700,Boulevard Henri-Bourassa Est,0, ,Montréal,H2C 1J3,Ahuntsic-Cartierville,niveau 4,-73.658288119,45.569219393
72,Service public,Établissement scolaire,Collège Regina Assumpta,,École secondaire et professionnelle,1750,Rue Sauriol Est,0, ,Montréal,H2C 1X4,Ahuntsic-Cartierville,niveau 4,-73.650219511,45.5653172090001
73,Service public,Établissement scolaire,Collège Sainte-Marceline,,École secondaire et professionnelle,9155,Boulevard Gouin Ouest,0, ,Montréal,H4K 1C3,Ahuntsic-Cartierville,niveau 4,-73.746584154,45.51637994
74,Récréatif / sportif,Équipement sportif et récréatif,Complexe aquatique Gabriel-Lalement,,Piscine extérieure,2350,Rue Sauvé Est,0, ,Montréal,H2B 1B2,Ahuntsic-Cartierville,niveau 1,-73.642727306,45.571292805
75,Récréatif / sportif,Équipement sportif et récréatif,Complexe aquatique Marcelin-Wilson,,Piscine extérieure,1655,Rue Dudemaine,0, ,Montréal,H3M 1R2,Ahuntsic-Cartierville,niveau 1,-73.68846045,45.5391273390001
76,Récréatif / sportif,Équipement sportif et récréatif,Complexe sportif Claude-Robillard,,Centre sportif intérieur,1000 ,Avenue Émile-Journault,0, ,Montréal,H2M 2E7,Ahuntsic-Cartierville,niveau 1,-73.63719092,45.552848807
77,Service public,Transport,Pôle Secteur Chabanel,,Pôle de mobilité, , ,0, ,Montréal, ,Ahuntsic-Cartierville,niveau 3,-73.652821165,45.541229032
78,Service public,Service de santé,CSSS d'Ahuntsic et Montréal-Nord,,CSSS,1725,Boulevard Gouin Est,0, ,Montréal,H2C 1C2,Ahuntsic-Cartierville,niveau 3,-73.662085764,45.568103835
79,Service public,Service de santé,CSSS de Bordeaux-Cartierville-Saint-Laurent,,CSSS,555,Boulevard Gouin Ouest,0, ,Montréal,H3L 1K5,Ahuntsic-Cartierville,niveau 3,-73.68758675,45.547325787
80,Service public,Transport,Pôle Complexe sportif Claude Robillard,,Pôle de mobilité, , ,0, ,Montréal, ,Ahuntsic-Cartierville,niveau 3,-73.63845545,45.553166968
81,Service public,Établissement scolaire,École François-de-Laval,,École primaire,12050,Avenue Bois-de-Boulogne,0, ,Montréal,H3M 2X9,Ahuntsic-Cartierville,niveau 4,-73.6960593269999,45.5430488470001
82,Service public,Établissement scolaire,École Gilles Vigneault,,École primaire,11400,Avenue de Poutrincourt,0, ,Montréal,H3M 1Z7,Ahuntsic-Cartierville,niveau 4,-73.691807482,45.5317938440001
83,Service public,Établissement scolaire,Académie John Caboto Academy,,École primaire,8955,Rue Meunier,0, ,Montréal,H2N 1W3,Ahuntsic-Cartierville,niveau 4,-73.648302071,45.539400255
84,Service public,Établissement scolaire,École La Dauversière,,École secondaire et professionnelle,11600,Boulevard de l’Acadie,0, ,Montréal,H3M 2T2,Ahuntsic-Cartierville,niveau 3,-73.688529114,45.53721999
85,Service public,Établissement scolaire,École La Visitation,,École primaire,10591,Rue Séguin,0, ,Montréal,H2B 2B8,Ahuntsic-Cartierville,niveau 4,-73.6561191,45.570819441
86,Service public,Établissement scolaire,École Louisbourg,,École primaire,11880,Rue Michel Sarrazin,0, ,Montréal,H4J 2G7,Ahuntsic-Cartierville,niveau 4,-73.7097678599999,45.5270107850001
87,Service public,Établissement scolaire,École Louis-Colin,,École primaire,10122,Boulevard Olympia,0, ,Montréal,H2C 2V9,Ahuntsic-Cartierville,niveau 4,-73.654537418,45.5608977680001
88,Service public,Établissement scolaire,École Marie-Anne,,École secondaire et professionnelle,100,Rue Sauvé Est,0, ,Montréal,H3L 1H1,Ahuntsic-Cartierville,niveau 4,-73.658540901,45.5476734040001
89,Service public,Établissement scolaire,"École Pasteur, Pavillon Khalil Gibran",,École secondaire et professionnelle,12345,Avenue de la Miséricorde,0, ,Montréal,H4J 2E8,Ahuntsic-Cartierville,niveau 4,-73.718611244,45.534213901
90,Service public,Établissement scolaire,École Pasteur (pavillon Victor-Hugo),,École primaire,12525,Rue Lachapelle,0, ,Montréal,H4J 2N2,Ahuntsic-Cartierville,niveau 4,-73.726061159,45.5319112220001
91,Service public,Établissement scolaire,École Saint-André-Apôtre,,École primaire,215,Rue Prieur Ouest,0, ,Montréal,H3L 1R7,Ahuntsic-Cartierville,niveau 4,-73.670279604,45.5465316670001
92,Service public,Établissement scolaire,École Saint-Antoine-Marie-Claret,,École primaire,10600,Avenue Larose,0, ,Montréal,H2B 1R3,Ahuntsic-Cartierville,niveau 4,-73.649733649,45.5798759370001
93,Service public,Établissement scolaire,École Saint-Benoît,,École primaire,500,Avenue du Mont-Cassin,0, ,Montréal,H3L 1W6,Ahuntsic-Cartierville,niveau 4,-73.6673651739999,45.5415801900001
94,Service public,Établissement scolaire,École Sainte-Odile,,École primaire,12055,Rue Dépatie,0, ,Montréal,H4J 1W9,Ahuntsic-Cartierville,niveau 4,-73.706941556,45.534496937
95,Service public,Établissement scolaire,"École Sainte-Odile, annexe",,École primaire,12330,Rue Lavigne,0, ,Montréal,H4J 1Y4,Ahuntsic-Cartierville,niveau 4,-73.7126837769999,45.5366744880001
96,Service public,Établissement scolaire,École Saint-Isaac-Jogues,,École primaire,9355,Avenue de Galinée,0, ,Montréal,H2M 2A7,Ahuntsic-Cartierville,niveau 4,-73.642944644,45.5595018160001
97,Service public,Établissement scolaire,École Saint-Paul-de-la-Croix,,École primaire,10495,Avenue Georges Baril,0, ,Montréal,H2C 2N1,Ahuntsic-Cartierville,niveau 4,-73.661292179,45.559333791
98,Service public,Établissement scolaire,École Saint-Simon-Apôtre,,École primaire,195,Rue de Beauharnois Ouest,0, ,Montréal,H2N 1K1,Ahuntsic-Cartierville,niveau 4,-73.647093873,45.5396346960001
99,Service public,Établissement scolaire,École Saints-Martyrs-Canadiens,,École primaire,9920,Rue Parthenais,0, ,Montréal,H2B 2L4,Ahuntsic-Cartierville,niveau 4,-73.6460004319999,45.5704616960001
100,Service public,Établissement scolaire,École secondaire Duval,,École secondaire et professionnelle,260,Boulevard Henri-Bourassa Est,0, ,Montréal,H3L 1B8,Ahuntsic-Cartierville,niveau 4,-73.669226748,45.5524978540001
101,Service public,Établissement scolaire,L.I.N.K.S. High School,,École secondaire et professionnelle,9905,Avenue Papineau,0, ,Montréal,H2B 1Z9,Ahuntsic-Cartierville,niveau 3,-73.6487995319999,45.5665374650001
102,Service public,Établissement scolaire,École Sophie-Barat,,École secondaire et professionnelle,1239,Boulevard Gouin Est,0, ,Montréal,H2C 1B3,Ahuntsic-Cartierville,niveau 4,-73.667297163,45.5619639130001
103,Service public,Établissement scolaire,École Sophie-Barat annexe,,École secondaire et professionnelle,750,Boulevard Gouin Est,0, ,Montréal,H2C 1A6,Ahuntsic-Cartierville,niveau 4,-73.6681160109999,45.5582850370001
104,Service public,Établissement scolaire,École St.Raphaël School,,École primaire,8380,Avenue Wiseman,0, ,Montréal,H3N 1E3,Villeray–Saint-Michel–Parc-Extension,niveau 4,-73.640825681,45.5300821770001
106,Service public,Service gouvernemental,Établissement de détention de Montréal (Bordeaux),,Centre de service gouvernemental,800,Boulevard Gouin Ouest,0, ,Montréal,H3L 1K7,Ahuntsic-Cartierville,niveau 4,-73.685828309,45.545429219
108,Commercial,Regroupement de commerces,Galeries Normandie,,Centre commercial,2620,Rue De Salaberry,0, ,Montréal,H3M 1L3,Ahuntsic-Cartierville,niveau 2,-73.6990881959999,45.5367202640001
109,Service public,Service de santé,Hôpital du Sacré-Cœur de Montréal (urgence 24 h),Hôpital du Sacré-Cœur,Hôpital,5400,Boulevard Gouin Ouest,0, ,Montréal,H4J 1C5,Ahuntsic-Cartierville,niveau 1,-73.714305483,45.5327289410001
110,Service public,Service de santé,Hôpital Fleury (urgence 24 h),Hôpital Fleury,Hôpital,2180,Rue Fleury Est,0, ,Montréal,H2B 1K3,Ahuntsic-Cartierville,niveau 2,-73.6502600759999,45.571945181
111,Service public,Établissement scolaire,Institut culinaire Saint-Pius X,,École secondaire et professionnelle,9955,Avenue Papineau,0, ,Montréal,H2B 1Z9,Ahuntsic-Cartierville,niveau 3,-73.649247459,45.5667273450001
113,Récréatif / sportif,Parc et autre espace vert,Jardin communautaire Ahuntsic,,Jardin communautaire, ,Rues Sackville / Prieur,0, ,Montréal, ,Ahuntsic-Cartierville,niveau 4,-73.6489649819999,45.5778994680001
114,Récréatif / sportif,Parc et autre espace vert,Jardin communautaire Christ-Roi,,Jardin communautaire, ,"Rue Frémont, entre les avenues Millen et De Chateaubriand",0, ,Montréal, ,Ahuntsic-Cartierville,niveau 4,-73.651797776,45.552722046
115,Récréatif / sportif,Parc et autre espace vert,Jardin communautaire Deschamps,,Jardin communautaire, ,"Rue Poincarré, près de la Rue De Salaberry",0, ,Montréal, ,Ahuntsic-Cartierville,niveau 4,-73.695049911,45.5444487780001
116,Récréatif / sportif,Parc et autre espace vert,Jardin communautaire Gérard-Legault,,Jardin communautaire, ,"Rue Dudemaine, près de la Rue Michel-Sarrazin",0, ,Montréal, ,Ahuntsic-Cartierville,niveau 4,-73.706287031,45.5246471350001
118,Récréatif / sportif,Parc et autre espace vert,Jardin communautaire Marcelin-Wilson,,Jardin communautaire, ,"Boulevard de l’Acadie, entre le Boulevard Henri-Bourassa et la Rue Dudemaine",0, ,Montréal, ,Ahuntsic-Cartierville,niveau 4,-73.683058839,45.537067403
119,Récréatif / sportif,Parc et autre espace vert,Jardin communautaire Pierre-Lapointe,,Jardin communautaire, ,à l'angle de l'Avenue Durham et du Boulevard Henri-Bourassa ,0, ,Montréal, ,Ahuntsic-Cartierville,niveau 4,-73.6659871219999,45.5571450410001
120,Récréatif / sportif,Parc et autre espace vert,Jardin communautaire Saint-Sulpice,,Jardin communautaire, ,à l'angle de la Rue Émile-Journault et l'Avenue André-Grasset,0, ,Montréal, ,Ahuntsic-Cartierville,niveau 4,-73.6353473519999,45.5568882530001
121,Récréatif / sportif,Parc et autre espace vert,Jardin communautaire Sault-au-Récollet,,Jardin communautaire, ,"Parc de l’Île-de-la-Visitation, près du Pressoir",0, ,Montréal, ,Ahuntsic-Cartierville,niveau 4,-73.659834966,45.5761794950001
122,Culturel,Bâtiment et lieu d'intérêt,Église de la Visitation,,Bâtiment historique / patrimonial,1847,Boulevard Gouin Est,0, ,Montréal,H2C 1C8,Ahuntsic-Cartierville,niveau 4,-73.661399665,45.5704584260001
132,Culturel,Art public,"Francine Larrivée, La réparation, 1998",La réparation,Art public, , ,0, ,Montréal, ,Ahuntsic-Cartierville,niveau 3,-73.6800070799999,45.5349922080001
133,Récréatif / sportif,Équipement sportif et récréatif,Piscine du Complexe sportif Claude-Robillard,,Piscine intérieure,1000,Avenue Émile-Journault,0, ,Montréal,H2M 2E7,Ahuntsic-Cartierville,niveau 2,-73.637472482,45.5526524750001
134,Récréatif / sportif,Équipement sportif et récréatif,Piscine Sophie-Barat,,Piscine intérieure,10851,Avenue Saint-Charles,0, ,Montréal,H2C 2M3,Ahuntsic-Cartierville,niveau 3,-73.668044771,45.561781135
136,Commercial,Regroupement de commerces,Promenade Fleury,,Artère commerciale, ,Rue Saint-Hubert à Avenue Papineau,0, ,Montréal, ,Ahuntsic-Cartierville,niveau 2,-73.6573241309999,45.5612712710001
137,Service public,Service municipal,Service à la communauté (région nord),Service à la communauté (nord),Service communautaire,855,Boulevard Crémazie Est,0, ,Montréal,H2M 2T7,Ahuntsic-Cartierville,niveau 3,-73.63504706,45.5497207560001
138,Culturel,Bâtiment et lieu d'intérêt,Site des Moulins,,Bâtiment historique / patrimonial,10897,Rue du Pont,0, ,Montréal,H2B 2N5,Ahuntsic-Cartierville,niveau 4,-73.661894543,45.5750394250001
139,Récréatif / sportif,Équipement sportif et récréatif,Piscine YMCA Cartierville,,Piscine intérieure,11885,Boulevard Laurentien,0, ,Montréal,H4J 2R5,Ahuntsic-Cartierville,niveau 3,-73.710901476,45.5252170200001
140,Récréatif / sportif,Équipement communautaire,Centre communautaire d'Ahuntsic,,Organisme communautaire et centre de loisirs,10780,Rue Laverdure,0, ,Montréal,H3L 2L9,Ahuntsic-Cartierville,niveau 3,-73.67160982,45.552363239
141,Récréatif / sportif,Équipement communautaire,Centre communautaire de Bordeau-Cartierville,,Organisme communautaire et centre de loisirs,1405,Boulevard Henri-Bourassa Ouest,0, ,Montréal,H3M 3B2,Ahuntsic-Cartierville,niveau 3,-73.678550292,45.5392212610001
142,Service public,Service municipal,Bureau Accès Montréal d'Ahuntsic-Cartierville,Bureau Accès Montréal,Bureau Accès Montréal et bureaux municipaux,555,Rue Chabanel Ouest,0, ,Montréal,H2N 2H8,Ahuntsic-Cartierville,niveau 2,-73.65525367,45.5381333660001
143,Service public,Service municipal,Bureau d'arrondissement d'Ahuntsic-Cartierville,Bureau d'arrondissement,Bureau Accès Montréal et bureaux municipaux,555,Rue Chabanel Ouest,0, ,Montréal,H2N 2H8,Ahuntsic-Cartierville,niveau 1,-73.65525367,45.5381333660001
144,Service public,Service municipal,Écocentre Acadie,Écocentre,Centre de récupération et de tri,1200,Boulevard Henri-Bourassa Ouest,0, ,Montréal,H3M 3G1,Ahuntsic-Cartierville,niveau 3,-73.676756772,45.539830082
145,Service public,Service municipal,"Ville en vert, éco-quartier Ahuntsic-Cartierville, point de service Gouin Ouest",Éco-quartier,Éco-quartier,5765,Boulevard Gouin Ouest,0, ,Montréal,H4J 1E2,Ahuntsic-Cartierville,niveau 3,-73.719562374,45.5326242090001
146,Service public,Service municipal,"Ville en vert, éco-quartier Ahuntsic-Cartierville, point de service Lajeunesse",Éco-quartier,Éco-quartier,10416,Rue Lajeunesse,0, ,Montréal,H3L 2E5,Ahuntsic-Cartierville,niveau 3,-73.66429816,45.5538825890001
147,Récréatif / sportif,Équipement communautaire,Centre culturel de Cartierville,,Organisme communautaire et centre de loisirs,5945,Boulevard Gouin Ouest,0, ,Montréal,H4J 1E5,Ahuntsic-Cartierville,niveau 3,-73.721511103,45.531871122
148,Récréatif / sportif,Équipement communautaire,Centre de bocce de l'Acadie,,Organisme communautaire et centre de loisirs,10526,Boulevard de l’Acadie,0, ,Montréal,H4N 1L9,Ahuntsic-Cartierville,niveau 3,-73.678588013,45.5324821360001
149,Récréatif / sportif,Équipement communautaire,Centre de boxe Ring 83,,Organisme communautaire et centre de loisirs,9810,Rue Saint-Urbain,0, ,Montréal,H3L 2T2,Ahuntsic-Cartierville,niveau 4,-73.660116253,45.544836693
150,Récréatif / sportif,Équipement communautaire,Centre de loisirs U.F.A,,Organisme communautaire et centre de loisirs,161,Boulevard Henri-Bourassa Ouest,0, ,Montréal,H3L 1N2,Ahuntsic-Cartierville,niveau 3,-73.6727221689999,45.5479403790001
151,Récréatif / sportif,Équipement communautaire,Centre des jeunes Saint-Sulpice,,Organisme communautaire et centre de loisirs,9455,Avenue Olivier-Maurault,0, ,Montréal,H2M 1Z5,Ahuntsic-Cartierville,niveau 3,-73.6468824149999,45.5561342070001
152,Récréatif / sportif,Équipement communautaire,Centre Henri-Julien,,Organisme communautaire et centre de loisirs,9300,Rue Saint-Denis,0, ,Montréal,H2M 1P1,Ahuntsic-Cartierville,niveau 3,-73.649284106,45.5476217620001
153,Récréatif / sportif,Équipement communautaire,Centre Saints-Martyrs-Canadiens,,Organisme communautaire et centre de loisirs,10125 ,Rue Parthenais,0, ,Montréal,H2B 2L6,Ahuntsic-Cartierville,niveau 3,-73.647734746,45.571762076
154,Service public,Service d'urgence,Caserne 35,,Caserne de pompiers,10827,Rue Lajeunesse,0, ,Montréal,H3L 2E7,Ahuntsic-Cartierville,niveau 4,-73.670430914,45.5560834130001
155,Service public,Service d'urgence,Caserne 42,,Caserne de pompiers,4180,Rue De Salaberry,0, ,Montréal,H4J 1H1,Ahuntsic-Cartierville,niveau 4,-73.703921788,45.5345106930001
156,Service public,Service d'urgence,Caserne 43,,Caserne de pompiers,1945,Rue Fleury Est,0, ,Montréal,H2B 1H8,Ahuntsic-Cartierville,niveau 4,-73.653001751,45.5694639500001
157,Service public,Service d'urgence,Caserne 49,,Caserne de pompiers,10,Rue Chabanel Ouest,0, ,Montréal,H2N 1E6,Ahuntsic-Cartierville,niveau 4,-73.6509087109999,45.544189051
158,Récréatif / sportif,Équipement communautaire,Maison Berthe-Louard,,Organisme communautaire et centre de loisirs,1325,Rue Chabanel Est,0, ,Montréal,H2M 1E1,Ahuntsic-Cartierville,niveau 3,-73.64059653,45.559480955
159,Récréatif / sportif,Équipement communautaire,Maison des Hirondelles,,Organisme communautaire et centre de loisirs,2574,Rue Fleury Est,0, ,Montréal,H2B 1L5,Ahuntsic-Cartierville,niveau 3,-73.646227631,45.576581752
160,Récréatif / sportif,Équipement communautaire,Maison des jeunes (le Squatt) d'Ahuntsic,Maison des jeunes (le Squatt),Organisme communautaire et centre de loisirs,10794,Rue Lajeunesse,0, ,Montréal,H3L 2E8,Ahuntsic-Cartierville,niveau 3,-73.670109174,45.5555780980001
161,Récréatif / sportif,Équipement communautaire,Maison des jeunes de Bordeaux-Cartierville,,Organisme communautaire et centre de loisirs,12120,Rue Grenet,0, ,Montréal,H4J 2P4,Ahuntsic-Cartierville,niveau 3,-73.7172537829999,45.529849993
162,Récréatif / sportif,Équipement communautaire,Maison du monde,,Organisme communautaire et centre de loisirs,20,Rue Chabanel Ouest,0, ,Montréal,H2N 1E6,Ahuntsic-Cartierville,niveau 3,-73.6510675769999,45.5439518950001
163,Récréatif / sportif,Équipement communautaire,The House - Bethel Pentacostal Church,,Organisme communautaire et centre de loisirs,45 ,Rue Legendre Ouest,0, ,Montréal,H2N 1G9,Ahuntsic-Cartierville,niveau 3,-73.648555637,45.5430257990001
164,Récréatif / sportif,Équipement communautaire,YMCA Cartierville,YMCA,Organisme communautaire et centre de loisirs,11885,Boulevard Laurentien,0, ,Montréal,H4J 2R5,Ahuntsic-Cartierville,niveau 4,-73.711050766,45.5252743440001
165,Culturel,Circuit et parcours,Avenue Park Stanley,,Rue piétonne, ,Avenue Park Stanley,0, ,Montréal, ,Ahuntsic-Cartierville,niveau 4,-73.672867088,45.558337373
166,Service public,Service d'urgence,Poste de quartier 46,,Police de quartier,6850,Boulevard Joseph-Renaud,0, ,Montréal,H1K 3V4,Anjou,niveau 3,-73.5530420389999,45.6050370570001
168,Récréatif / sportif,Parc et autre espace vert,Parc André-Laurendeau,,Parc, , ,0, ,Montréal,H1J 2H5,Anjou,niveau 2,-73.570107452,45.6045576240001
169,Récréatif / sportif,Parc et autre espace vert,Jardin communautaire André-Laurendeau,,Jardin communautaire,8361,Avenue André-Laurendeau,0, ,Montréal,H1J 2H5,Anjou,niveau 4,-73.570002873,45.603533316
170,Récréatif / sportif,Parc et autre espace vert,Parc Chénier,,Parc, , ,0, ,Montréal,H1K 4C9,Anjou,niveau 2,-73.5434951779999,45.602981567
171,Récréatif / sportif,Parc et autre espace vert,Parc D'Allones,,Parc, , ,0, ,Montréal,H1J 1W8,Anjou,niveau 3,-73.577438354,45.6040725710001
172,Récréatif / sportif,Parc et autre espace vert,Parc D'Antioche,,Parc, , ,0, ,Montréal,H1M 3X1,Anjou,niveau 3,-73.558128357,45.595401764
173,Récréatif / sportif,Parc et autre espace vert,Parc de Peterborough,,Parc, , ,0, ,Montréal, ,Anjou,niveau 2,-73.55556488,45.610900879
174,Récréatif / sportif,Parc et autre espace vert,Jardin communautaire de Spalding,,Jardin communautaire, , ,0, ,Montréal, ,Anjou,niveau 4,-73.55255127,45.603012085
175,Récréatif / sportif,Parc et autre espace vert,Parc de Talcy,,Parc, , ,0, ,Montréal, ,Anjou,niveau 2,-73.55871582,45.609333038
177,Récréatif / sportif,Parc et autre espace vert,Parc De Verdelles,,Parc, , ,0, ,Montréal, ,Anjou,niveau 2,-73.549607965,45.608382798
178,Récréatif / sportif,Parc et autre espace vert,Parc des Roseraies,,Parc, , ,0, ,Montréal, ,Anjou,niveau 2,-73.555114671,45.593273561
179,Récréatif / sportif,Parc et autre espace vert,Parc du Bocage,,Parc, , ,0, ,Montréal, ,Anjou,niveau 2,-73.551859542,45.592579093
180,Récréatif / sportif,Parc et autre espace vert,Parc du Fort-Des Ormeaux,,Parc, , ,0, ,Montréal,H1K 2Y2,Anjou,niveau 3,-73.5552368159999,45.6149787900001
181,Récréatif / sportif,Parc et autre espace vert,Parc du Mail,,Parc, , ,0, ,Montréal, H1K 1Z1,Anjou,niveau 2,-73.544708252,45.598922729
182,Récréatif / sportif,Parc et autre espace vert,Parc Félix-Leclerc,,Parc, , ,0, ,Montréal,H1K 5C7,Anjou,niveau 2,-73.545661926,45.5963439940001
184,Récréatif / sportif,Parc et autre espace vert,Parc Goncourt,,Parc, , ,0, ,Montréal,H1K,Anjou,niveau 2,-73.557785034,45.6022338870001
185,Récréatif / sportif,Parc et autre espace vert,Parc Lucie-Bruneau,,Parc, , ,0, ,Montréal,H1J 2C9,Anjou,niveau 2,-73.584019977,45.6041680100001
186,Récréatif / sportif,Équipement sportif et récréatif,Piscine Lucie-Bruneau,,Piscine extérieure, , ,0, ,Montréal,H1J 2C9,Anjou,niveau 3,-73.583681284,45.6041389100001
187,Récréatif / sportif,Parc et autre espace vert,Parc Roger-Rousseau,,Parc, , ,0, ,Montréal,H1J 2H5,Anjou,niveau 2,-73.549920035,45.6166019930001
188,Récréatif / sportif,Équipement sportif et récréatif,Piscine Roger-Rousseau,,Piscine extérieure, , ,0, ,Montréal,H1J 2H5,Anjou,niveau 3,-73.550844134,45.6162748190001
189,Récréatif / sportif,Équipement sportif et récréatif,Aréna Chaumont,,Centre sportif intérieur,8750,Avenue Chaumont,0, ,Montréal,H1K 4E8,Anjou,niveau 3,-73.545776367,45.610870361
190,Récréatif / sportif,Équipement sportif et récréatif,Aréna Chénier,,Centre sportif intérieur,8200,Avenue Chénier,0, ,Montréal,H1K 5E9,Anjou,niveau 3,-73.5411799629999,45.6013891220001
191,Récréatif / sportif,Parc et autre espace vert,Boisé Saint-Conrad,,Parc, , ,0, ,Montréal,H1K 1N9,Anjou,niveau 2,-73.545715332,45.611785889
193,Service public,Établissement scolaire,Centre Anjou,,École secondaire et professionnelle,5515,Avenue de l'Aréna,0, ,Montréal,H1K 4C9,Anjou,niveau 3,-73.541131015,45.603277996
194,Service public,Établissement scolaire,Centre de formation des métiers de l'acier,,École secondaire et professionnelle,9200,Rue de l'Innovation,0, ,Montréal,H1J 2X9,Anjou,niveau 3,-73.562412777,45.620304349
195,Culturel,Bibliothèque,Bibliothèque du Haut-Anjou,,Bibliothèque publique,7070,Rue Jarry Est,0, ,Montréal,H1J 1G3,Anjou,niveau 1,-73.575653076,45.601146698
196,Culturel,Bibliothèque,Bibliothèque Jean-Corbeil,,Bibliothèque publique,7500,Avenue Goncourt,0, ,Montréal,H1K 3X9,Anjou,niveau 1,-73.558414657,45.602941113
197,Récréatif / sportif,Équipement sportif et récréatif,Complexe sportif de l'école secondaire d'Anjou,,Centre sportif intérieur,8205,Rue Fonteneau,0, ,Montréal,H1K 3P4,Anjou,niveau 3,-73.539985657,45.6028480530001
198,Service public,Établissement scolaire,École Albatros,,École primaire,6440,Boulevard des Galeries d'Anjou,0, ,Montréal,H1M 1W2,Anjou,niveau 4,-73.5539033219999,45.5939460210001
199,Service public,Établissement scolaire,École Cardinal-Léger,,École primaire,6951,Rue Des Ormeaux,0, ,Montréal,H1K 2X7,Anjou,niveau 4,-73.547416687,45.6114311220001
200,Service public,Établissement scolaire,École Chénier,,École primaire,5800,Avenue Saint-Donat,0, ,Montréal,H1K 3P7,Anjou,niveau 4,-73.542946183,45.6046827870001
201,Service public,Établissement scolaire,École Dalkeith Elementary School,,École primaire,7951,Avenue Dalkeith,0, ,Montréal,H1K 3X6,Anjou,niveau 4,-73.55074806,45.6025106600001
202,Service public,Établissement scolaire,École Des Roseraies,,École primaire,6440,Boulevard des Galeries D'anjou,0, ,Montréal,H1M 1W2,Anjou,niveau 4,-73.554077984,45.593994002
203,Service public,Établissement scolaire,École Jacques-Rousseau,,École primaire,7455,Rue Jarry Est,0, ,Montréal,H1J 1G8,Anjou,niveau 4,-73.572992765,45.605428987
204,Service public,Établissement scolaire,École Saint-Joseph,,École primaire,7725,Rue Des Ormeaux,0, ,Montréal,H1K 2Y2,Anjou,niveau 4,-73.554107446,45.6143494240001
205,Service public,Établissement scolaire,École secondaire Anjou,,École secondaire et professionnelle,8205,Rue Fonteneau,0, ,Montréal,H1K 4E1,Anjou,niveau 3,-73.540275574,45.602626801
206,Service public,Établissement scolaire,École Wilfrid-Pelletier,,École primaire,8301,Boulevard Wilfrid-Pelletier,0, ,Montréal,H1K 1M2,Anjou,niveau 4,-73.553192139,45.607479095
207,Récréatif / sportif,Attrait touristique,Golf Métropolitain Anjou,,Attrait touristique sportif ou récréatif,9555,Boulevard du Golf,0, ,Montréal,H1J 2Y2,Anjou,niveau 3,-73.562882473,45.6252458120001
208,Récréatif / sportif,Parc et autre espace vert,Jardin communautaire Notre-Dame d'Anjou,,Jardin communautaire, , ,0, ,Montréal,H1K 2B3,Anjou,niveau 4,-73.542633057,45.601696014
209,Récréatif / sportif,Parc et autre espace vert,Jardin communautaire Roi-René,,Jardin communautaire, , ,0, ,Montréal,H1K 1B5,Anjou,niveau 4,-73.557136536,45.612850189
210,Culturel,Lieu de diffusion,Église Jean XXIII,,Lieu de diffusion municipal,7101,Avenue de l’Alsace,0, ,Montréal,H1K 3X9,Anjou,niveau 1,-73.582229614,45.6044540410001
211,Récréatif / sportif,Parc et autre espace vert,Place des Jumelages,,Parc, , ,0, ,Montréal, ,Anjou,niveau 4,-73.551750183,45.600708008
213,Récréatif / sportif,Équipement communautaire,Centre communautaire Chénier,,Organisme communautaire et centre de loisirs,8330,Avenue Chénier,0, ,Montréal,H1K 2B5,Anjou,niveau 3,-73.543177259,45.604069511
214,Récréatif / sportif,Équipement communautaire,Centre communautaire Roger-Rousseau,,Organisme communautaire et centre de loisirs,7501,Avenue Rondeau,0, ,Montréal,H1K 2P3,Anjou,niveau 3,-73.550582886,45.6160964970001
215,Service public,Service municipal,"Direction de la culture, des sports, des loisirs et du développement social",,Bureau Accès Montréal et bureaux municipaux,7500,Avenue Goncourt,0, ,Montréal,H1K 4B8,Anjou,niveau 4,-73.558206091,45.60295211
216,Service public,Service municipal,Mairie d'arrondissement d'Anjou,Mairie d'arrondissement,Hôtel de ville / mairie,7701,Boulevard Louis-H.-La Fontaine,0, ,Montréal,H1K 4B9,Anjou,niveau 1,-73.557548607,45.601884967
217,Service public,Service municipal,Travaux publics et Aménagement urbain,,Bureau Accès Montréal et bureaux municipaux,7171,Rue Bombardier,0, ,Montréal,H1J 2E9,Anjou,niveau 4,-73.5864639279999,45.6075248720001
218,Service public,Service d'urgence,Caserne 28,,Caserne de pompiers,7650,Boulevard Châteauneuf,0, ,Montréal,H1K 4H3,Anjou,niveau 4,-73.558830261,45.6030426030001
219,Service public,Service d'urgence,Poste de quartier 11,,Police de quartier,6255,Avenue Somerled,0, ,Montréal,H3X 2B7,Côte-des-Neiges–Notre-Dame-de-Grâce,niveau 3,-73.635470182,45.4710837540001
220,Récréatif / sportif,Équipement communautaire,Aire d’animation du parc Jean-Brillant,,Organisme communautaire et centre de loisirs, , ,0, ,Montréal, ,Côte-des-Neiges–Notre-Dame-de-Grâce,niveau 4,-73.620233358,45.497184878
221,Récréatif / sportif,Équipement communautaire,Association de la communauté noire de la Côte-des-Neiges,,Organisme communautaire et centre de loisirs,6585,Chemin de la Côte-des-Neiges,0, ,Montréal,H3S 2A5,Côte-des-Neiges–Notre-Dame-de-Grâce,niveau 4,-73.6353711369999,45.5025073300001
222,Service public,Service d'urgence,Poste de quartier 26,,Police de quartier,7405,Avenue Mountain Sights,0, ,Montréal,H4P 2B1,Côte-des-Neiges–Notre-Dame-de-Grâce,niveau 3,-73.651824965,45.49625566
223,Culturel,Lieu de diffusion,Maison de la culture Côte-des-Neiges,,Lieu de diffusion municipal,5290,Chemin de la Côte-des-Neiges,0, ,Montréal,H3T 1Y2,Côte-des-Neiges–Notre-Dame-de-Grâce,niveau 1,-73.622226166,45.4960879760001
224,Culturel,Lieu de diffusion,Maison de la culture Notre-Dame-de-Grâce,,Lieu de diffusion municipal,3755,Rue Botrel,0, ,Montréal,H4A 3G8,Côte-des-Neiges–Notre-Dame-de-Grâce,niveau 1,-73.61443743,45.47551744
226,Commercial,Hébergement,Motel Colibri,,Hôtel,6960,Rue Saint-Jacques,0, ,Montréal,H4B 1V8,Côte-des-Neiges–Notre-Dame-de-Grâce,niveau 4,-73.629411943,45.4562248190001
227,Commercial,Hébergement,Motel Saint-Jacques,,Hôtel,1980,Avenue Westmore,0, ,Montréal,H4B 1Z3,Côte-des-Neiges–Notre-Dame-de-Grâce,niveau 4,-73.6351611279999,45.45349142
229,Récréatif / sportif,Parc et autre espace vert,Parc Benny,,Parc, , ,0, ,Montréal, H4B 1H2,Côte-des-Neiges–Notre-Dame-de-Grâce,niveau 2,-73.6329363099999,45.4667197850001
230,Récréatif / sportif,Parc et autre espace vert,Parc Coffee,,Parc, , ,0, ,Montréal, H4B 1K1,Côte-des-Neiges–Notre-Dame-de-Grâce,niveau 3,-73.639251709,45.455394745
231,Récréatif / sportif,Parc et autre espace vert,Parc de Kent,,Parc, , ,0, ,Montréal,H3S 2T3,Côte-des-Neiges–Notre-Dame-de-Grâce,niveau 2,-73.632019043,45.50409317
232,Récréatif / sportif,Parc et autre espace vert,Parc de la Confédération,,Parc, , ,0, ,Montréal,H3X 3S8,Côte-des-Neiges–Notre-Dame-de-Grâce,niveau 2,-73.639579773,45.4722862240001
233,Récréatif / sportif,Parc et autre espace vert,Parc de la Savane,,Parc, , ,0, ,Montréal, ,Côte-des-Neiges–Notre-Dame-de-Grâce,niveau 2,-73.655380249,45.4992980960001
234,Récréatif / sportif,Parc et autre espace vert,Parc de Sousa-Mendes,,Parc, , ,0, ,Montréal,H3S 1V7,Côte-des-Neiges–Notre-Dame-de-Grâce,niveau 3,-73.621955872,45.508808136
235,Récréatif / sportif,Parc et autre espace vert,Parc Dunkerque,,Parc, , ,0, ,Montréal, ,Côte-des-Neiges–Notre-Dame-de-Grâce,niveau 3,-73.633880615,45.512626648
236,Récréatif / sportif,Parc et autre espace vert,Parc Georges-Saint-Pierre,,Parc, , ,0, ,Montréal, ,Côte-des-Neiges–Notre-Dame-de-Grâce,niveau 2,-73.607391357,45.4686584470001
237,Récréatif / sportif,Parc et autre espace vert,Parc Gilbert-Layton,,Parc, , ,0, ,Montréal,H4V 2Y9,Côte-des-Neiges–Notre-Dame-de-Grâce,niveau 2,-73.651054382,45.4659729000001
238,Récréatif / sportif,Parc et autre espace vert,Parc Jean-Brillant,,Parc, , ,0, ,Montréal, ,Côte-des-Neiges–Notre-Dame-de-Grâce,niveau 2,-73.6196899409999,45.496898651
239,Récréatif / sportif,Parc et autre espace vert,Parc Loyola,,Parc, , ,0, ,Montréal, ,Côte-des-Neiges–Notre-Dame-de-Grâce,niveau 2,-73.645545959,45.461444855
240,Récréatif / sportif,Parc et autre espace vert,Parc Macdonald,,Parc, , ,0, ,Montréal,H3X 2S7,Côte-des-Neiges–Notre-Dame-de-Grâce,niveau 2,-73.635696411,45.4834671020001
241,Récréatif / sportif,Parc et autre espace vert,Parc Mackenzie-King,,Parc, , ,0, ,Montréal, ,Côte-des-Neiges–Notre-Dame-de-Grâce,niveau 2,-73.6335830689999,45.490009308
242,Récréatif / sportif,Parc et autre espace vert,Parc Mahatma-Gandhi,,Parc, , ,0, ,Montréal, ,Côte-des-Neiges–Notre-Dame-de-Grâce,niveau 2,-73.6281967159999,45.5063896180001
243,Récréatif / sportif,Parc et autre espace vert,Parc Marie-Gérin-Lajoie,,Parc, , ,0, ,Montréal,H3S 2N4,Côte-des-Neiges–Notre-Dame-de-Grâce,niveau 2,-73.620361328,45.5102005000001
244,Récréatif / sportif,Parc et autre espace vert,Parc Maurice-Cullen,,Parc, , ,0, ,Montréal, H3W 2H5,Côte-des-Neiges–Notre-Dame-de-Grâce,niveau 2,-73.620071411,45.4837455750001
245,Récréatif / sportif,Parc et autre espace vert,Parc Nelson-Mandela,,Parc, , ,0, ,Montréal, ,Côte-des-Neiges–Notre-Dame-de-Grâce,niveau 2,-73.644668579,45.4941329960001
246,Récréatif / sportif,Parc et autre espace vert,Parc Notre-Dame-de-Grâce,,Parc, , ,0, ,Montréal, ,Côte-des-Neiges–Notre-Dame-de-Grâce,niveau 2,-73.614463806,45.4727211000001
247,Récréatif / sportif,Parc et autre espace vert,Parc Roméo-Charrette,,Parc, , ,0, ,Montréal, ,Côte-des-Neiges–Notre-Dame-de-Grâce,niveau 2,-73.641548157,45.506214142
248,Récréatif / sportif,Parc et autre espace vert,Parc Rosemary-Brown,,Parc, , ,0, ,Montréal,H3X 1B6,Côte-des-Neiges–Notre-Dame-de-Grâce,niveau 2,-73.648246765,45.4899291990001
249,Récréatif / sportif,Parc et autre espace vert,Parc Somerled,,Parc, , ,0, ,Montréal,H3X 1T4,Côte-des-Neiges–Notre-Dame-de-Grâce,niveau 2,-73.6355743409999,45.4745216370001
250,Récréatif / sportif,Parc et autre espace vert,Parc Trenholme,,Parc, , ,0, ,Montréal,H4B 1P4,Côte-des-Neiges–Notre-Dame-de-Grâce,niveau 2,-73.631736755,45.4606933590001
251,Récréatif / sportif,Parc et autre espace vert,Parc Van Horne,,Parc, , ,0, ,Montréal,H3W 1J3,Côte-des-Neiges–Notre-Dame-de-Grâce,niveau 2,-73.6388778689999,45.4916610720001
252,Récréatif / sportif,Parc et autre espace vert,Parc William-Bowie,,Parc, , ,0, ,Montréal,H3W 1G9,Côte-des-Neiges–Notre-Dame-de-Grâce,niveau 2,-73.6489105219999,45.4577522280001
253,Récréatif / sportif,Parc et autre espace vert,Parc William-Hurst,,Parc, , ,0, ,Montréal,H4B 2Y7,Côte-des-Neiges–Notre-Dame-de-Grâce,niveau 2,-73.6311416629999,45.4697189330001
254,Service public,Établissement scolaire,Académie Kells Academy,,École secondaire et professionnelle,6865,Boulevard De Maisonneuve Ouest,0, ,Montréal,H4B 1T1,Côte-des-Neiges–Notre-Dame-de-Grâce,niveau 4,-73.631279041,45.4594924200001
255,Service public,Établissement scolaire,Académie Marymount Academy,,École secondaire et professionnelle,5100,Chemin de la Côte-Saint-Luc,0, ,Montréal,H3W 2G9,Côte-des-Neiges–Notre-Dame-de-Grâce,niveau 3,-73.620244078,45.4822965510001
256,Récréatif / sportif,Équipement sportif et récréatif,Aréna Bill-Durnan,,Centre sportif intérieur,4988,Rue Vézina,0, ,Montréal,H3W 1C1,Côte-des-Neiges–Notre-Dame-de-Grâce,niveau 3,-73.644561768,45.4947738650001
257,Récréatif / sportif,Équipement sportif et récréatif,Aréna Doug-Harvey,,Centre sportif intérieur,4985,Avenue West Hill,0, ,Montréal,H4V 2W6,Côte-des-Neiges–Notre-Dame-de-Grâce,niveau 3,-73.638644026,45.4713548840001
258,Récréatif / sportif,Parc et autre espace vert,Belvédère Terry-Fox,,Parc, , ,0, ,Montréal,H4A 2E8,Côte-des-Neiges–Notre-Dame-de-Grâce,niveau 4,-73.608677633,45.466727528
259,Service public,Service gouvernemental,Carrefour Jeunesse-Emploi Côte-des-Neiges,Carrefour Jeunesse-Emploi CDN,Centre de service gouvernemental,6555,Chemin de la Côte-des-Neiges,0, ,Montréal,H3S 2A6,Côte-des-Neiges–Notre-Dame-de-Grâce,niveau 2,-73.635052373,45.502394553
260,Service public,Service gouvernemental,Carrefour Jeunesse-Emploi Notre-Dame-de-Grâce,Carrefour Jeunesse-Emploi NDG,Centre de service gouvernemental,6370,Rue Sherbrooke Ouest,0, ,Montréal,H4B 1M9,Côte-des-Neiges–Notre-Dame-de-Grâce,niveau 2,-73.6258993769999,45.46501735
262,Commercial,Regroupement de commerces,Centre commercial Van Horne,,Centre commercial,4815-4861,Avenue Van Horne,0, ,Montréal,H3W 1J2,Côte-des-Neiges–Notre-Dame-de-Grâce,niveau 3,-73.639038022,45.4937650410001
263,Commercial,Regroupement de commerces,Centre commercial Wilderton,,Centre commercial,2615-2865,Avenue Van Horne,0, ,Montréal,H3S 1P7,Côte-des-Neiges–Notre-Dame-de-Grâce,niveau 3,-73.6253383439999,45.509195467
264,Récréatif / sportif,Équipement communautaire,Centre des Aînés Côte-des-Neiges,,Organisme communautaire et centre de loisirs,6600,Avenue Victoria,0,101,Montréal,H3W 3G7,Côte-des-Neiges–Notre-Dame-de-Grâce,niveau 3,-73.641876343,45.4960216420001
265,Service public,Établissement scolaire,Centre d’études commerciales Shadd,,École secondaire et professionnelle,1000,Avenue Old Orchard,0, ,Montréal,H4A 3A4,Côte-des-Neiges–Notre-Dame-de-Grâce,niveau 4,-73.6070098879999,45.4692802430001
266,Service public,Service de santé,Centre de réadaptation Constance-Lethbridge,Centre Constance-Lethbridge,Centre de réadaptation,7005,Boulevard De Maisonneuve Ouest,0, ,Montréal,H4B 1T3,Côte-des-Neiges–Notre-Dame-de-Grâce,niveau 4,-73.633913422,45.4582696090001
267,Service public,Service de santé,Centre de réadaptation MAB-Mackay (site Mackay),Centre MAB-Mackay (Mackay),Centre de réadaptation,3500,Boulevard Décarie,0, ,Montréal,H4B 3J5,Côte-des-Neiges–Notre-Dame-de-Grâce,niveau 4,-73.6115626879999,45.475151209
268,Service public,Service de santé,Centre de réadaptation MAB-Mackay (site MAB),Centre MAB-Mackay (MAB),Centre de réadaptation,7000,Rue Sherbrooke Ouest,0, ,Montréal,H4B 1R3,Côte-des-Neiges–Notre-Dame-de-Grâce,niveau 4,-73.6357058039999,45.4592096420001
269,Service public,Service de santé,Centre hospitalier de St. Mary (urgence 24 h),Centre hospitalier de St. Mary,Hôpital,3830,Avenue Lacombe,0, ,Montréal,H3T 1M5,Côte-des-Neiges–Notre-Dame-de-Grâce,niveau 2,-73.624885559,45.494636536
270,Service public,Établissement scolaire,Centre Pauline-Julien,,École secondaire et professionnelle,6830,Chemin de la Côte-des-Neiges,0, ,Montréal,H3S 2A8,Côte-des-Neiges–Notre-Dame-de-Grâce,niveau 3,-73.6384758679999,45.5033830420001
271,Culturel,Bibliothèque,Bibliothèque Benny,,Bibliothèque publique,6400,Avenue de Monkland,0, ,Montréal,H4B 1H3,Côte-des-Neiges–Notre-Dame-de-Grâce,niveau 1,-73.6310228579999,45.466094072
272,Récréatif / sportif,Équipement sportif et récréatif,Centre sportif Confédération,,Centre sportif intérieur,5320,Avenue de Kensington,0, ,Montréal,H3X 3S8,Côte-des-Neiges–Notre-Dame-de-Grâce,niveau 3,-73.642324422,45.474018915
273,Récréatif / sportif,Équipement sportif et récréatif,Centre sportif Côte-des-Neiges,,Centre sportif intérieur,4880,Avenue Van Horne,0, ,Montréal,H3W 1J3,Côte-des-Neiges–Notre-Dame-de-Grâce,niveau 2,-73.6378651649999,45.4927445880001
274,Récréatif / sportif,Équipement sportif et récréatif,Centre sportif de Notre-Dame-de-Grâce,,Centre sportif intérieur,6445,Avenue Monkland ,0, ,Montréal,H4B 1H2,Côte-des-Neiges–Notre-Dame-de-Grâce,niveau 3,-73.6322777999999,45.4664536170001
275,Récréatif / sportif,Équipement sportif et récréatif,Centre sportif Trenholme,,Centre sportif intérieur,6800,Rue Sherbrooke Ouest,0, ,Montréal, ,Côte-des-Neiges–Notre-Dame-de-Grâce,niveau 3,-73.632291742,45.4609129140001
276,Récréatif / sportif,Équipement sportif et récréatif,Centre sportif Westhill,,Centre sportif intérieur,5945,Rue Somerled ,0, ,Montréal,H3X 2A5,Côte-des-Neiges–Notre-Dame-de-Grâce,niveau 3,-73.632529746,45.474663843
277,Récréatif / sportif,Équipement communautaire,Centre Westhaven,,Organisme communautaire et centre de loisirs,7405,Avenue Harley,0, ,Montréal,H4B 1L5,Côte-des-Neiges–Notre-Dame-de-Grâce,niveau 3,-73.6388884739999,45.454765836
278,Récréatif / sportif,Équipement sportif et récréatif,CEPSUM (Centre d’éducation physique et des sports de l’Université de Montréal),CEPSUM,Centre sportif intérieur,2100,Boulevard Édouard-Montpetit,0, ,Montréal,H3T 1J4,Côte-des-Neiges–Notre-Dame-de-Grâce,niveau 2,-73.612861633,45.5082778930001
279,Culturel,Bibliothèque,Bibliothèque de Côte-des-Neiges,,Bibliothèque publique,5290,Chemin de la Côte-des-Neiges,0, ,Montréal,H3T 1Y2,Côte-des-Neiges–Notre-Dame-de-Grâce,niveau 1,-73.622154236,45.4959793090001
280,Culturel,Bibliothèque,Bibliothèque de Notre-Dame-de-Grâce,,Bibliothèque publique,3755,Rue Botrel,0, ,Montréal,H4A 3G8,Côte-des-Neiges–Notre-Dame-de-Grâce,niveau 1,-73.614575395,45.4755863450001
281,Service public,Service de santé,CHU Sainte-Justine,,Hôpital,3175,Chemin de la Côte-Sainte-Catherine,0, ,Montréal,H3T 1C4,Côte-des-Neiges–Notre-Dame-de-Grâce,niveau 1,-73.624159393,45.5033305640001
282,Culturel,Bibliothèque,Bibliothèque interculturelle,,Bibliothèque publique,6767,Chemin de la Côte-des-Neiges,0, ,Montréal,H3S 2T6,Côte-des-Neiges–Notre-Dame-de-Grâce,niveau 1,-73.636956965,45.503366241
283,Service public,Service gouvernemental,Centre de recherche d'emploi Côte-des-Neiges,Centre de recherche d'emploi,Centre de service gouvernemental,3600,Avenue Barclay,0,421,Montréal,H3S 1K5,Côte-des-Neiges–Notre-Dame-de-Grâce,niveau 2,-73.635333298,45.5026377980001
284,Service public,Service de santé,CLSC Côte-des-Neiges,,CLSC,5700,Chemin de la Côte-des-Neiges,0, ,Montréal,H3T 2A8,Côte-des-Neiges–Notre-Dame-de-Grâce,niveau 3,-73.627297413,45.498266986
285,Service public,Service de santé,CLSC de Benny Farm,,CLSC,6484,Avenue de Monkland,0, ,Montréal,H4B 1H3,Côte-des-Neiges–Notre-Dame-de-Grâce,niveau 3,-73.63170322,45.4654340860001
286,Service public,Établissement scolaire,Collège international Marie de France,,Cégep et université,4635,Chemin Queen-Mary,0, ,Montréal,H3W 1W3,Côte-des-Neiges–Notre-Dame-de-Grâce,niveau 4,-73.62399292,45.4899559020001
287,Service public,Établissement scolaire,Collège international Marie de France,,École secondaire et professionnelle,4635,Chemin Queen-Mary,0, ,Montréal,H3W 1W3,Côte-des-Neiges–Notre-Dame-de-Grâce,niveau 4,-73.62399292,45.4899559020001
288,Service public,Établissement scolaire,Collège Jean-de-Brébeuf,,Cégep et université,3201,Chemin de la Côte-Sainte-Catherine,0, ,Montréal,H3T 1C2,Côte-des-Neiges–Notre-Dame-de-Grâce,niveau 4,-73.6231791829999,45.5011753320001
289,Service public,Établissement scolaire,Collège Jean-de-Brébeuf,,École secondaire et professionnelle,3200,Chemin de la Côte-Sainte-Catherine,0, ,Montréal,H3T 1C1,Côte-des-Neiges–Notre-Dame-de-Grâce,niveau 4,-73.623376933,45.5017259220001
290,Service public,Établissement scolaire,Collège Notre-Dame,,École secondaire et professionnelle,3791,Chemin Queen-Mary,0, ,Montréal,H3V 1A8,Côte-des-Neiges–Notre-Dame-de-Grâce,niveau 4,-73.620948792,45.4939002990001
291,Service public,Établissement scolaire,Collège Prep International,,École secondaire et professionnelle,7476,Rue Sherbrooke Ouest,0, ,Montréal,H4B 1S4,Côte-des-Neiges–Notre-Dame-de-Grâce,niveau 4,-73.642417409,45.454281139
292,Récréatif / sportif,Équipement communautaire,Centre communautaire de loisir de Côte-des-Neiges,,Organisme communautaire et centre de loisirs,5347,Chemin de la Côte-des-Neiges,0, ,Montréal,H3T 1Y4,Côte-des-Neiges–Notre-Dame-de-Grâce,niveau 3,-73.622511698,45.4970617450001
293,Service public,Service de santé,CUSM Hôpital Royal Victoria (urgence 24 h),CUSM Hôpital Royal Victoria,Hôpital,1001,Boulevard Décarie,0, ,Montréal,H4A 3J1,Côte-des-Neiges–Notre-Dame-de-Grâce,niveau 1,-73.601379395,45.472984314
294,Service public,Établissement scolaire,École Al-Houda,,École secondaire et professionnelle,7085,Chemin de la Côte-des-Neiges,0, ,Montréal,H3R 2M1,Côte-des-Neiges–Notre-Dame-de-Grâce,niveau 4,-73.640411854,45.5049650620001
296,Service public,Établissement scolaire,École Bedford,,École primaire,3131,Rue Goyer,0, ,Montréal,H3S 1H7,Côte-des-Neiges–Notre-Dame-de-Grâce,niveau 4,-73.63330323,45.5073085660001
297,Service public,Établissement scolaire,École Coronation,,École primaire,4810,Avenue Van Horne,0, ,Montréal,H3W 1J3,Côte-des-Neiges–Notre-Dame-de-Grâce,niveau 4,-73.6374893189999,45.493713379
298,Service public,Établissement scolaire,École des Cinq-Continents (pavillon Dupuis),École des Cinq-Continents (Dupuis),École primaire,5530,Avenue Dupuis,0, ,Montréal,H3X 1N8,Côte-des-Neiges–Notre-Dame-de-Grâce,niveau 4,-73.6383938179999,45.4837304710001
299,Service public,Établissement scolaire,École des Nations,,École primaire,4860,Rue Vézina,0, ,Montréal,H3W 1C1,Côte-des-Neiges–Notre-Dame-de-Grâce,niveau 4,-73.643875263,45.4959311370001
300,Service public,Établissement scolaire,École du Petit-Chapiteau,,École primaire,4890,Avenue Carlton,0, ,Montréal,H3W 1G7,Côte-des-Neiges–Notre-Dame-de-Grâce,niveau 4,-73.6401893139999,45.4942200090001
301,Service public,Établissement scolaire,École Étoile filante,,École primaire,5619,Chemin de la Côte-Saint-Antoine,0, ,Montréal,H4A 1R5,Côte-des-Neiges–Notre-Dame-de-Grâce,niveau 4,-73.616909313,45.4726342430001
302,Service public,Établissement scolaire,École Félix-Leclerc,,École primaire,35,Rue Saint-Zotique Est,0, ,Montréal,H2S 1K5,Rosemont–La Petite-Patrie,niveau 4,-73.6117927299999,45.5323905590001
303,Service public,Établissement scolaire,École internationale de Montréal,,École primaire,5010,Avenue Coolbrook,0, ,Montréal,H3X 2K9,Côte-des-Neiges–Notre-Dame-de-Grâce,niveau 4,-73.629725793,45.482306572
304,Service public,Établissement scolaire,École Iona,,École primaire,5000,Avenue Iona,0, ,Montréal,H3W 2A2,Côte-des-Neiges–Notre-Dame-de-Grâce,niveau 4,-73.624862671,45.484806061
305,Service public,Établissement scolaire,École Judith-Jasmin,,École primaire,4575,Avenue Mariette,0, ,Montréal,H4B 2G3,Côte-des-Neiges–Notre-Dame-de-Grâce,niveau 4,-73.640187883,45.462972682
306,Service public,Établissement scolaire,École La Voie,,École secondaire et professionnelle,6755,Rue Lavoie,0, ,Montréal,H3W 2K8,Côte-des-Neiges–Notre-Dame-de-Grâce,niveau 3,-73.641074891,45.4991391150001
307,Service public,Établissement scolaire,École Les-Enfants-du-Monde,,École primaire,5350,Avenue Rosedale,0, ,Montréal,H9H 5M9,Côte-des-Neiges–Notre-Dame-de-Grâce,niveau 4,-73.649688556,45.466785004
308,Service public,Établissement scolaire,École Lucille-Teasdale,,École primaire,3975,Rue Bouchette,0, ,Montréal,H3S 2X1,Côte-des-Neiges–Notre-Dame-de-Grâce,niveau 4,-73.639796745,45.4999206690001
309,Service public,Établissement scolaire,École Marc-Favreau,,École primaire,6310,Avenue Somerled,0, ,Montréal,H3X 2B8,Côte-des-Neiges–Notre-Dame-de-Grâce,niveau 4,-73.635839131,45.4696617800001
310,Service public,Établissement scolaire,École Notre-Dame-de-Grâce,,École primaire,5435,Avenue Notre-Dame-de-Grâce,0, ,Montréal,H4A 1L2,Côte-des-Neiges–Notre-Dame-de-Grâce,niveau 4,-73.617352565,45.4757997880001
311,Service public,Établissement scolaire,École Notre-Dame-des-Neiges,,École primaire,5309,Chemin de la Côte-des-Neiges,0, ,Montréal,H3T 1Y4,Côte-des-Neiges–Notre-Dame-de-Grâce,niveau 4,-73.622277482,45.4966595160001
312,Service public,Établissement scolaire,École Polytechnique de Montréal,,Cégep et université,2900,Boulevard Édouard-Montpetit,0, ,Montréal,H3T 1J4,Côte-des-Neiges–Notre-Dame-de-Grâce,niveau 1,-73.612917879,45.504531092
313,Service public,Établissement scolaire,École Royal Vale School,,École primaire,5851,Avenue Somerled,0, ,Montréal,H3X 2A4,Côte-des-Neiges–Notre-Dame-de-Grâce,niveau 4,-73.632606506,45.4751739500001
314,Service public,Établissement scolaire,École Royal Vale School,,École secondaire et professionnelle,5851,Avenue Somerled,0, ,Montréal,H3X 2A5,Côte-des-Neiges–Notre-Dame-de-Grâce,niveau 3,-73.632614136,45.4751739500001
315,Service public,Établissement scolaire,École Rudolf Steiner de Montréal,École Rudolf Steiner,École secondaire et professionnelle,4855,Avenue de Kensington,0, ,Montréal,H3X 3S7,Côte-des-Neiges–Notre-Dame-de-Grâce,niveau 4,-73.635462069,45.4715179030001
316,Service public,Établissement scolaire,École Sainte-Catherine-de-Sienne,,École primaire,2055,Avenue d’Oxford,0, ,Montréal,H4A 2X6,Côte-des-Neiges–Notre-Dame-de-Grâce,niveau 4,-73.609856253,45.469296023
317,Service public,Établissement scolaire,École Saint-Luc,,École secondaire et professionnelle,6300,Chemin de la Côte-Saint-Luc,0, ,Montréal,H3X 2H4,Côte-des-Neiges–Notre-Dame-de-Grâce,niveau 3,-73.6434197419999,45.473920374
318,Service public,Établissement scolaire,École Saint-Pascal-Baylon,,École primaire,6320 ,Chemin de la Côte-des-Neiges,0, ,Montréal,H3S 2A4,Côte-des-Neiges–Notre-Dame-de-Grâce,niveau 4,-73.634483337,45.5015830990001
319,Service public,Établissement scolaire,École secondaire Outreach High School,,École secondaire et professionnelle,5440,Rue Notre-Dame Ouest,0, ,Montréal,H4C 1T9,Le Sud-Ouest,niveau 3,-73.5958046439999,45.468260597
320,Service public,Établissement scolaire,École Simonne-Monet,,École primaire,3850,Avenue Dupuis,0, ,Montréal,H3T 1E6,Côte-des-Neiges–Notre-Dame-de-Grâce,niveau 4,-73.627687172,45.496167401
321,Service public,Établissement scolaire,École St. Monica,,École primaire,6440,Rue de Terrebonne,0, ,Montréal,H4B 1B1,Côte-des-Neiges–Notre-Dame-de-Grâce,niveau 4,-73.6343154909999,45.467281342
322,Service public,Établissement scolaire,École Willingdon,,École primaire,5870,Rue de Terrebonne,0, ,Montréal,H4A 1B5,Côte-des-Neiges–Notre-Dame-de-Grâce,niveau 4,-73.628700256,45.473552704
323,Culturel,Établissement culturel,Centre commémoratif de l’Holocauste à Montréal,Centre commémoratif de l’Holocauste,Musée et centre d'interprétation / d'exposition,5151,Chemin de la Côte-Sainte-Catherine,0, ,Montréal,H3W 1M6,Côte-des-Neiges–Notre-Dame-de-Grâce,niveau 2,-73.636352448,45.489026874
324,Culturel,Établissement culturel,Centre d’exposition de l’Université de Montréal,,Musée et centre d'interprétation / d'exposition,2940,chemin de la Côte-Sainte-Catherine,0, ,Montréal,H3C 3J7,Côte-des-Neiges–Notre-Dame-de-Grâce,niveau 3,-73.6210937499999,45.5045738220001
325,Culturel,Lieu de diffusion,Centre Segal des arts de la scène,,Théâtre / salle de spectacle / petit lieu de diffusion,5170,Chemin de la Côte-Sainte-Catherine,0, ,Montréal,H3W 1M7,Côte-des-Neiges–Notre-Dame-de-Grâce,niveau 2,-73.635757285,45.4887605850001
326,Culturel,Bâtiment et lieu d'intérêt,Cimetière Baron de Hirsch,,Bâtiment historique / patrimonial,5015,Rue de la Savane,0, ,Montréal,H4P 1V1,Côte-des-Neiges–Notre-Dame-de-Grâce,niveau 4,-73.655002909,45.500133766
327,Culturel,Bâtiment et lieu d'intérêt,Cimetière Notre-Dame-des-Neiges,,Bâtiment historique / patrimonial,4601,Chemin de la Côte-des-Neiges,0, ,Montréal,H3V 1E7,Côte-des-Neiges–Notre-Dame-de-Grâce,niveau 4,-73.608694571,45.4961738120001
328,Culturel,Lieu de diffusion,Cinéstarz Côte-des-Neiges,,Cinéma,6700,Chemin de la Côte-des-Neiges,0,300,Montréal,H3S 2B2,Côte-des-Neiges–Notre-Dame-de-Grâce,niveau 3,-73.637618139,45.502198811
329,Service public,Établissement scolaire,HEC Montréal,,Cégep et université,3000,Chemin de la Côte-Sainte-Catherine,0, ,Montréal,H3T 2B1,Côte-des-Neiges–Notre-Dame-de-Grâce,niveau 1,-73.621311472,45.5035376700001
330,Service public,Service de santé,Hôpital Catherine Booth,,Hôpital,4375,Avenue Montclair,0, ,Montréal,H4B 2J5,Côte-des-Neiges–Notre-Dame-de-Grâce,niveau 4,-73.635644273,45.463882519
331,Service public,Service de santé,Hôpital général juif (urgence 24 h),Hôpital général juif,Hôpital,3755,Chemin de la Côte-Sainte-Catherine,0, ,Montréal,H3T 1E2,Côte-des-Neiges–Notre-Dame-de-Grâce,niveau 1,-73.6296403659999,45.497449305
332,Service public,Service de santé,Hôpital Richardson,,Hôpital,5425,Avenue Bessborough,0, ,Montréal,H4V 2S7,Côte-des-Neiges–Notre-Dame-de-Grâce,niveau 2,-73.645946312,45.4719203590001
333,Commercial,Hébergement,Hôtel Ruby Foo’s,,Hôtel,7655,Boulevard Décarie,0, ,Montréal,H4P 2H2,Côte-des-Neiges–Notre-Dame-de-Grâce,niveau 4,-73.655486749,45.4972342880001
334,Commercial,Hébergement,Hôtel Terrasse Royale,,Hôtel,5225,Chemin de la Côte-des-Neiges,0, ,Montréal,H3T 1Y1,Côte-des-Neiges–Notre-Dame-de-Grâce,niveau 4,-73.620697021,45.4958801270001
335,Service public,Service de santé,Institut de réadaptation Gingras-Lindsay-de-Montréal (pavillon Gingras),Institut Gingras-Lindsay (Gingras),Centre de réadaptation,6300,Avenue de Darlington,0, ,Montréal,H3S 2J4,Côte-des-Neiges–Notre-Dame-de-Grâce,niveau 4,-73.628719362,45.50823825
336,Service public,Service de santé,Institut de réadaptation Gingras-Lindsay-de-Montréal (pavillon Lindsay),Institut Gingras-Lindsay (Lindsay),Centre de réadaptation,6363,Chemin Hudson,0, ,Montréal,H3S 1M9,Côte-des-Neiges–Notre-Dame-de-Grâce,niveau 4,-73.629429822,45.5068339360001
337,Service public,Service de santé,Institut universitaire de gériatrie de Montréal,Institut universitaire de gériatrie,Hôpital,4565,Chemin Queen-Mary,0, ,Montréal,H3W 1W5,Côte-des-Neiges–Notre-Dame-de-Grâce,niveau 2,-73.623810726,45.4909753530001
338,Récréatif / sportif,Parc et autre espace vert,Jardin communautaire Châteaufort,,Jardin communautaire, ,Avenue Van Horne et Avenue de Darlington,0, ,Montréal, ,Côte-des-Neiges–Notre-Dame-de-Grâce,niveau 4,-73.626548767,45.5074920650001
339,Récréatif / sportif,Parc et autre espace vert,Jardin communautaire de la Savane,,Jardin communautaire, ,Parc de la Savane et Avenue Mountain Sights,0, ,Montréal, ,Côte-des-Neiges–Notre-Dame-de-Grâce,niveau 4,-73.654942654,45.4987154470001
340,Récréatif / sportif,Parc et autre espace vert,Jardin communautaire Notre-Dame-de-Grâce,,Jardin communautaire, ,Avenue Rosedale et chemin de la Côte-Saint-Luc,0, ,Montréal, ,Côte-des-Neiges–Notre-Dame-de-Grâce,niveau 4,-73.6512692269999,45.467397659
341,Récréatif / sportif,Parc et autre espace vert,Jardin communautaire Rencontres,,Jardin communautaire, ,Avenue Notre-Dame-de-Grâce et Rue Botrel,0, ,Montréal, ,Côte-des-Neiges–Notre-Dame-de-Grâce,niveau 4,-73.616485261,45.4756339080001
342,Récréatif / sportif,Parc et autre espace vert,Jardin communautaire Saint-Raymond,,Jardin communautaire, ,Chemin Upper-Lachine et Avenue d'Oxford,0, ,Montréal, ,Côte-des-Neiges–Notre-Dame-de-Grâce,niveau 4,-73.609621918,45.4701442470001
343,Récréatif / sportif,Équipement communautaire,Centre communautaire de Saint-Raymond,,Organisme communautaire et centre de loisirs,5600,Chemin Upper-Lachine,0, ,Montréal,H4A 2A7,Côte-des-Neiges–Notre-Dame-de-Grâce,niveau 3,-73.608329773,45.4695510860001
344,Service public,Établissement scolaire,L’Académie Beth Rivkah pour filles,,École secondaire et professionnelle,5001,Rue Vezina,0, ,Montréal,H3W 1C2,Côte-des-Neiges–Notre-Dame-de-Grâce,niveau 4,-73.64600744,45.494381671
345,Service public,Établissement scolaire,L’Académie Centenniale Academy,,École secondaire et professionnelle,3501,Avenue Prud'homme,0, ,Montréal,H4A 3H6,Côte-des-Neiges–Notre-Dame-de-Grâce,niveau 4,-73.611437002,45.4747485
346,Service public,Service de santé,La Maison Bleue Côte-des-Neiges,,Clinique,3735,Avenue Plamondon,0, ,Montréal,H3S 1L8,Côte-des-Neiges–Notre-Dame-de-Grâce,niveau 4,-73.6354964669999,45.501537904
348,Commercial,Hébergement,Le Chabrol Hôtel & Suites,,Hôtel,6951,Rue Saint-Jacques,0, ,Montréal,H4B 1V3,Côte-des-Neiges–Notre-Dame-de-Grâce,niveau 4,-73.6296031589999,45.4574388080001
349,Service public,Établissement scolaire,Lower Canada College,,Cégep et université,4090,Avenue Royal,0, ,Montréal,H4A 2M5,Côte-des-Neiges–Notre-Dame-de-Grâce,niveau 4,-73.6235675089999,45.470390073
350,Service public,Établissement scolaire,Lower Canada College,,École primaire,4090,Avenue Royal,0, ,Montréal,H4A 2M5,Côte-des-Neiges–Notre-Dame-de-Grâce,niveau 4,-73.623559879,45.4703862580001
351,Service public,Établissement scolaire,Lower Canada College,,École secondaire et professionnelle,4090,Avenue Royal,0, ,Montréal,H4A 2M5,Côte-des-Neiges–Notre-Dame-de-Grâce,niveau 4,-73.623559879,45.470390073
352,Service public,Établissement scolaire,Loyola High School,,École secondaire et professionnelle,7272,Rue Sherbrooke Ouest,0, ,Montréal,H4B 1R2,Côte-des-Neiges–Notre-Dame-de-Grâce,niveau 4,-73.63952054,45.4568076410001
353,Culturel,Bâtiment et lieu d'intérêt,L’Oratoire Saint-Joseph du Mont-Royal,L’Oratoire Saint-Joseph,Bâtiment historique / patrimonial,3800,Chemin Queen-Mary,0, ,Montréal,H3V 1H6,Côte-des-Neiges–Notre-Dame-de-Grâce,niveau 1,-73.616500743,45.4918828500001
354,Culturel,Art public,"Linda Covit, Havre, 2015",Havre,Art public, , ,0, ,Montréal, ,Côte-des-Neiges–Notre-Dame-de-Grâce,niveau 3,-73.602752686,45.4730072020001
355,Service public,Service de santé,Pavillon André-Roch-Lecours,,Hôpital,4545,Chemin Queen-Mary,0, ,Montréal,H3W 1W6,Côte-des-Neiges–Notre-Dame-de-Grâce,niveau 4,-73.623188259,45.4916057
356,Récréatif / sportif,Équipement communautaire,Centre communautaire juif,,Organisme communautaire et centre de loisirs,5400,Avenue de Westbury,0, ,Montréal,H3W 2W8,Côte-des-Neiges–Notre-Dame-de-Grâce,niveau 4,-73.634447385,45.4883412140001
357,Récréatif / sportif,Équipement sportif et récréatif,Piscine du Centre sportif Côte-des-Neiges,,Piscine intérieure,4880,Avenue Van Horne,0, ,Montréal,H3W 1J3,Côte-des-Neiges–Notre-Dame-de-Grâce,niveau 2,-73.638477692,45.4928105050001
358,Récréatif / sportif,Équipement sportif et récréatif,Piscine du Centre sportif de Notre-Dame-de-Grâce,,Piscine intérieure,6445,Avenue Monkland ,0, ,Montréal,H4B 1H2,Côte-des-Neiges–Notre-Dame-de-Grâce,niveau 2,-73.6322777999999,45.4664536170001
359,Récréatif / sportif,Équipement sportif et récréatif,Piscine Notre-Dame-de-Grâce,,Piscine intérieure,3760,Boulevard Décarie,0, ,Montréal,H4A 3J7,Côte-des-Neiges–Notre-Dame-de-Grâce,niveau 3,-73.6137542719999,45.476264954
360,Récréatif / sportif,Parc et autre espace vert,Place de Darlington,,Parc, , ,0, ,Montréal, ,Côte-des-Neiges–Notre-Dame-de-Grâce,niveau 3,-73.6273879999999,45.5098342900001
361,Récréatif / sportif,Parc et autre espace vert,Place du-6-décembre-1989,,Parc, , ,0, ,Montréal,H3T 1W5,Côte-des-Neiges–Notre-Dame-de-Grâce,niveau 4,-73.617828735,45.4959427580001
362,Commercial,Regroupement de commerces,Plaza Côte-des-Neiges,,Centre commercial,6700,Chemin de la Côte-des-Neiges,0, ,Montréal,H3S 2B2,Côte-des-Neiges–Notre-Dame-de-Grâce,niveau 2,-73.637840271,45.502323151
363,Commercial,Hébergement,Ramada Plaza by Wyndham Montreal,,Hôtel,6445,Boulevard Décarie,0, ,Montréal,H3W 3E1,Côte-des-Neiges–Notre-Dame-de-Grâce,niveau 4,-73.644751826,45.4910178280001
364,Culturel,Art public,"Rose-Marie Goulet, Nef pour quatorze reines, 1999",Nef pour quatorze reines,Art public, , ,0, ,Montréal, ,Côte-des-Neiges–Notre-Dame-de-Grâce,niveau 3,-73.6176986689999,45.4960403440001
365,Culturel,Lieu de diffusion,Salle de concert Oscar-Peterson (Université Concordia),Salle de concert Oscar-Peterson,Théâtre / salle de spectacle / petit lieu de diffusion,7141,Rue Sherbrooke Ouest,0, ,Montréal,H4B 1R6,Côte-des-Neiges–Notre-Dame-de-Grâce,niveau 3,-73.6390278069999,45.459315949
367,Service public,Établissement scolaire,Campus Loyola (Université Concordia),Campus Loyola (Concordia),Cégep et université,7141,Rue Sherbrooke Ouest,0, ,Montréal,H4B 1R6,Côte-des-Neiges–Notre-Dame-de-Grâce,niveau 1,-73.6400070189999,45.4585495000001
368,Service public,Établissement scolaire,Université de Montréal,,Cégep et université,2900,Boulevard Edouard-Montpetit,0, ,Montréal,H3T 1J4,Côte-des-Neiges–Notre-Dame-de-Grâce,niveau 1,-73.61555239,45.502874519
369,Service public,Établissement scolaire,Collège Villa Maria,,École secondaire et professionnelle,4245,Boulevard Décarie,0, ,Montréal,H4A 3K4,Côte-des-Neiges–Notre-Dame-de-Grâce,niveau 4,-73.6170954739999,45.4818724400001
370,Service public,Établissement scolaire,Yeshiva Gedola-Merkaz Hatorah,,École secondaire et professionnelle,6155,Chemin Deacon,0, ,Montréal,H3S 2P4,Côte-des-Neiges–Notre-Dame-de-Grâce,niveau 4,-73.620760762,45.512715085
371,Récréatif / sportif,Équipement communautaire,Centre communautaire Monkland,,Organisme communautaire et centre de loisirs,4410,Avenue West Hill,0, ,Montréal,H4B 2S9,Côte-des-Neiges–Notre-Dame-de-Grâce,niveau 3,-73.632204299,45.4679760550001
372,Récréatif / sportif,Équipement communautaire,Centre communautaire Mountain Sights,,Organisme communautaire et centre de loisirs,7802,Avenue Mountain Sights,0, ,Montréal,H4P 2B2,Côte-des-Neiges–Notre-Dame-de-Grâce,niveau 3,-73.655034792,45.4978131550001
373,Récréatif / sportif,Équipement communautaire,Centre communautaire Notre-Dame-de-Grâce,,Organisme communautaire et centre de loisirs,3757,Avenue Prud'homme,0, ,Montréal,H4A 3H8,Côte-des-Neiges–Notre-Dame-de-Grâce,niveau 3,-73.613960573,45.4760934620001
374,Récréatif / sportif,Équipement communautaire,Centre communautaire Walkley,,Organisme communautaire et centre de loisirs,6650,Chemin de la Côte-Saint-Luc,0, ,Montréal,H4V 1G8,Côte-des-Neiges–Notre-Dame-de-Grâce,niveau 3,-73.649206476,45.4701814260001
375,Service public,Service municipal,Bureau Accès Montréal de Côte-des-Neiges–Notre-Dame-de-Grâce,Bureau Accès Montréal,Bureau Accès Montréal et bureaux municipaux,5160,Boulevard Décarie,1, ,Montréal,H3X 2H9,Côte-des-Neiges–Notre-Dame-de-Grâce,niveau 2,-73.630630906,45.4838191690001
378,Service public,Service municipal,Division des permis et inspections,,Bureau Accès Montréal et bureaux municipaux,5160,Boulevard Décarie,1, ,Montréal,H3X 2H9,Côte-des-Neiges–Notre-Dame-de-Grâce,niveau 2,-73.630566535,45.4837912670001
379,Service public,Service municipal,Écocentre Côte-des-Neiges,Écocentre,Centre de récupération et de tri,6925,Chemin de la Côte-des-Neiges,0, ,Montréal,H3S 2B6,Côte-des-Neiges–Notre-Dame-de-Grâce,niveau 3,-73.638855017,45.5052679560001
380,Service public,Service municipal,Éco-quartier de Côte-des-Neiges,Éco-quartier,Éco-quartier,6767,Chemin de la Côte-des-Neiges,0, ,Montréal,H3S 2T6,Côte-des-Neiges–Notre-Dame-de-Grâce,niveau 3,-73.637036945,45.5032759490001
381,Service public,Service municipal,Éco-quartier de Notre-Dame-de-Grâce,Éco-quartier,Éco-quartier,6575,Avenue Somerled,0, ,Montréal,H4V 1T1,Côte-des-Neiges–Notre-Dame-de-Grâce,niveau 3,-73.6390887,45.4671845190001
382,Service public,Service municipal,Mairie d’arrondissement de Côte-des-Neiges–Notre-Dame-de-Grâce,Mairie d’arrondissement,Hôtel de ville / mairie,5160,Boulevard Décarie,0,610,Montréal,H3X 2H9,Côte-des-Neiges–Notre-Dame-de-Grâce,niveau 1,-73.630566535,45.4837912670001
383,Récréatif / sportif,Équipement communautaire,Centre Le Manoir Notre-Dame-de-Grâce,,Organisme communautaire et centre de loisirs,5319,Avenue Notre-Dame-de-Grâce,0, ,Montréal, ,Côte-des-Neiges–Notre-Dame-de-Grâce,niveau 3,-73.616207144,45.4773454840001
384,Récréatif / sportif,Équipement communautaire,Centre Loyola,,Organisme communautaire et centre de loisirs,7065,Avenue Somerled,0, ,Montréal,H4V 1V8,Côte-des-Neiges–Notre-Dame-de-Grâce,niveau 3,-73.644035066,45.461215646
385,Service public,Service d'urgence,Caserne 27,,Caserne de pompiers,5353,Avenue Gatineau,0, ,Montréal,H3T 1X2,Côte-des-Neiges–Notre-Dame-de-Grâce,niveau 4,-73.621962788,45.497393602
386,Récréatif / sportif,Équipement communautaire,Club de tennis Monkland,,Organisme communautaire et centre de loisirs,4225,Avenue Royal,0, ,Montréal,H4A 2M4,Côte-des-Neiges–Notre-Dame-de-Grâce,niveau 4,-73.6250701559999,45.471534283
387,Récréatif / sportif,Équipement communautaire,Club de tennis NDG,,Organisme communautaire et centre de loisirs,5319,Avenue Notre-Dame-de-Grâce,0, ,Montréal,H4A 1L2,Côte-des-Neiges–Notre-Dame-de-Grâce,niveau 4,-73.616799252,45.477649747
388,Service public,Service d'urgence,Caserne 34,,Caserne de pompiers,5369,Chemin de la Côte-Saint-Antoine,0, ,Montréal,H4A 3J5,Côte-des-Neiges–Notre-Dame-de-Grâce,niveau 4,-73.61424977,45.4755152060001
389,Service public,Service d'urgence,Caserne 4,,Caserne de pompiers,5260,Avenue Van Horne,0, ,Montréal,H3W 1J9,Côte-des-Neiges–Notre-Dame-de-Grâce,niveau 4,-73.641664683,45.4899796440001
390,Récréatif / sportif,Équipement communautaire,Conseil communautaire Notre-Dame-de-Grâce,,Organisme communautaire et centre de loisirs,5964,Avenue Notre-Dame-de-Grâce,0,204,Montréal,H4A 1N1,Côte-des-Neiges–Notre-Dame-de-Grâce,niveau 4,-73.621868065,45.4694741760001
391,Service public,Service d'urgence,Caserne 46,,Caserne de pompiers,4760,Avenue Cumberland,0, ,Montréal,H4B 2L4,Côte-des-Neiges–Notre-Dame-de-Grâce,niveau 4,-73.638581055,45.4670485790001
392,Récréatif / sportif,Équipement communautaire,Creative Social Center,,Organisme communautaire et centre de loisirs,5237,Avenue Clanranald,0, ,Montréal,H3X 1R6,Côte-des-Neiges–Notre-Dame-de-Grâce,niveau 3,-73.633978654,45.482483884
395,Récréatif / sportif,Équipement communautaire,Jeunesse 2000 NDG,,Organisme communautaire et centre de loisirs,3770,Boulevard Décarie,0, ,Montréal,H4A 3J7,Côte-des-Neiges–Notre-Dame-de-Grâce,niveau 3,-73.6137542719999,45.476264954
396,Récréatif / sportif,Équipement communautaire,La Maison de Jeunes de la Côte-des-Neiges,,Organisme communautaire et centre de loisirs,3220,Avenue Appleton,0, ,Montréal,H3S 2T3,Côte-des-Neiges–Notre-Dame-de-Grâce,niveau 3,-73.631667471,45.505170004
397,Récréatif / sportif,Équipement communautaire,Le 6767 : centre communautaire,Le 6767,Organisme communautaire et centre de loisirs,6767,Chemin de la Côte-des-Neiges,0, ,Montréal,H3S 2T6,Côte-des-Neiges–Notre-Dame-de-Grâce,niveau 3,-73.6369136019999,45.5032222660001
398,Récréatif / sportif,Équipement communautaire,Pavillon Martin-Luther-King,,Organisme communautaire et centre de loisirs,3220,Appleton,0, ,Montréal,H3S 2T3,Côte-des-Neiges–Notre-Dame-de-Grâce,niveau 3,-73.631457106,45.505126558
399,Récréatif / sportif,Équipement communautaire,Pavillon de la Savane,,Organisme communautaire et centre de loisirs,5111,Rue Paré,0, ,Montréal,H4P 1P4,Côte-des-Neiges–Notre-Dame-de-Grâce,niveau 3,-73.654098511,45.4983062740001
400,Récréatif / sportif,Équipement communautaire,Pavillon Gilbert-Layton,,Organisme communautaire et centre de loisirs,6980,Avenue de Chester,0, ,Montréal,H4V 2Y9,Côte-des-Neiges–Notre-Dame-de-Grâce,niveau 3,-73.650473494,45.465873516
401,Récréatif / sportif,Équipement communautaire,Pavillon Nelson-Mandela,,Organisme communautaire et centre de loisirs,6999,Chemin de la Côte-des-Neiges,0, ,Montréal,H3S 2B8,Côte-des-Neiges–Notre-Dame-de-Grâce,niveau 3,-73.6438365829999,45.494517468
402,Récréatif / sportif,Équipement communautaire,Relais Côte-des-Neiges,,Organisme communautaire et centre de loisirs,6600,Avenue Victoria,0,100,Montréal,H3W 3G8,Côte-des-Neiges–Notre-Dame-de-Grâce,niveau 4,-73.641911378,45.4959530300001
403,Service public,Service municipal,Tandem Montréal Côte-des-Neiges,Tandem,Service communautaire,6767,Chemin de la Côte-des-Neiges,0, ,Montréal,H3S 2T6,Côte-des-Neiges–Notre-Dame-de-Grâce,niveau 3,-73.6368166629999,45.5032959260001
404,Service public,Service municipal,Tandem Montréal Notre-Dame-de-Grâce,Tandem,Service communautaire,5600,Chemin Upper-Lachine,0, ,Montréal,H4A 2A7,Côte-des-Neiges–Notre-Dame-de-Grâce,niveau 3,-73.608275765,45.469620182
405,Récréatif / sportif,Équipement communautaire,YMCA Notre-Dame-de-Grâce,YMCA,Organisme communautaire et centre de loisirs,4335,Avenue Hampton,0, ,Montréal,H4A 1B6,Côte-des-Neiges–Notre-Dame-de-Grâce,niveau 4,-73.627541441,45.4717341940001
406,Récréatif / sportif,Équipement communautaire,Sylvan Adams YM-YWHA,,Organisme communautaire et centre de loisirs,5400,Avenue de Westbury,0, ,Montréal,H3W 2W8,Côte-des-Neiges–Notre-Dame-de-Grâce,niveau 4,-73.634134995,45.4881147720001
407,Service public,Transport,Pôle Métro Université de Montréal,,Pôle de mobilité, , ,0, ,Montréal, ,Côte-des-Neiges–Notre-Dame-de-Grâce,niveau 3,-73.618226007,45.502662146
408,Culturel,Circuit et parcours,Placette de la Côte-des-Neiges,,Rue piétonne, ,Chemin du Frère-André,0, ,Montréal, ,Côte-des-Neiges–Notre-Dame-de-Grâce,niveau 4,-73.61835855,45.4946575020001
409,Récréatif / sportif,Parc et autre espace vert,Parc Antoine-Pilet,,Parc, , ,0, ,Montréal, ,L'Île-Bizard–Sainte-Geneviève,niveau 2,-73.880233765,45.490009308
410,Récréatif / sportif,Parc et autre espace vert,Parc Bastien-Lavigne,,Parc, , ,0, ,Montréal,H9C 2Y2,L'Île-Bizard–Sainte-Geneviève,niveau 3,-73.879311104,45.500721712
411,Récréatif / sportif,Parc et autre espace vert,Parc Blaise-Closse,,Parc, , ,0, ,Montréal,H9C 1Y9,L'Île-Bizard–Sainte-Geneviève,niveau 3,-73.873236182,45.4931510490001
412,Récréatif / sportif,Parc et autre espace vert,Parc Cardinal,,Parc, , ,0, ,Montréal,H9E 1M9,L'Île-Bizard–Sainte-Geneviève,niveau 3,-73.881652832,45.479602814
413,Récréatif / sportif,Parc et autre espace vert,Parc Chaumette,,Parc, , ,0, ,Montréal,H9E 1M8,L'Île-Bizard–Sainte-Geneviève,niveau 3,-73.885154724,45.48122406
414,Récréatif / sportif,Parc et autre espace vert,Parc Closse,,Parc, , ,0, ,Montréal,H9C 1Z2,L'Île-Bizard–Sainte-Geneviève,niveau 3,-73.871368408,45.4926605220001
415,Récréatif / sportif,Parc et autre espace vert,Parc Denis-Benjamin-Viger,,Parc, , ,0, ,Montréal,H9C 2N4,L'Île-Bizard–Sainte-Geneviève,niveau 3,-73.869010841,45.4893932380001
416,Récréatif / sportif,Parc et autre espace vert,Parc Desmarest,,Parc, , ,0, ,Montréal, ,L'Île-Bizard–Sainte-Geneviève,niveau 2,-73.8692932129999,45.4980773930001
417,Récréatif / sportif,Parc et autre espace vert,Parc Doral,,Parc, , ,0, ,Montréal,H9E 1S1,L'Île-Bizard–Sainte-Geneviève,niveau 3,-73.906593606,45.5030917030001
418,Récréatif / sportif,Parc et autre espace vert,Parc du Collège,,Parc, , ,0, ,Montréal,H9H 2P7,L'Île-Bizard–Sainte-Geneviève,niveau 4,-73.869720459,45.484745026
419,Récréatif / sportif,Parc et autre espace vert,Parc du Manoir,,Parc, , ,0, ,Montréal,H9C 2R3,L'Île-Bizard–Sainte-Geneviève,niveau 3,-73.873565206,45.487241957
420,Récréatif / sportif,Parc et autre espace vert,Parc du Verger,,Parc, , ,0, ,Montréal,H9C 2Y6,L'Île-Bizard–Sainte-Geneviève,niveau 3,-73.8687667849999,45.5084190370001
421,Récréatif / sportif,Parc et autre espace vert,Parc Eugène-Dostie,,Parc, , ,0, ,Montréal,H9E 1B5,L'Île-Bizard–Sainte-Geneviève,niveau 2,-73.883875341,45.4861164530001
422,Récréatif / sportif,Parc et autre espace vert,Parc George-Legault,,Parc, , ,0, ,Montréal,H9H 1E4,L'Île-Bizard–Sainte-Geneviève,niveau 4,-73.8764904889999,45.4719367860001
423,Récréatif / sportif,Parc et autre espace vert,Parc Jacques-Cardinal,,Parc, , ,0, ,Montréal,H9H 2X3,L'Île-Bizard–Sainte-Geneviève,niveau 4,-73.871223969,45.4809618990001
424,Récréatif / sportif,Parc et autre espace vert,Parc Joly,,Parc, , ,0, ,Montréal,H9E 1P4,L'Île-Bizard–Sainte-Geneviève,niveau 3,-73.891972264,45.472655875
425,Récréatif / sportif,Parc et autre espace vert,Parc Jonathan-Wilson,,Parc, , ,0, ,Montréal, ,L'Île-Bizard–Sainte-Geneviève,niveau 2,-73.872055054,45.500190735
426,Récréatif / sportif,Parc et autre espace vert,Parc Joseph-Avila-Proulx,,Parc, , ,0, ,Montréal, ,L'Île-Bizard–Sainte-Geneviève,niveau 2,-73.882316589,45.496910095
427,Récréatif / sportif,Parc et autre espace vert,Parc L'Envolée,,Parc, , ,0, ,Montréal,H9C 2X7,L'Île-Bizard–Sainte-Geneviève,niveau 3,-73.865112305,45.4973411560001
428,Récréatif / sportif,Parc et autre espace vert,Parc Léon-Brisebois,,Parc, , ,0, ,Montréal,H9C 2A9,L'Île-Bizard–Sainte-Geneviève,niveau 3,-73.86605072,45.498315184
429,Récréatif / sportif,Parc et autre espace vert,Parc Lucien-Côté,,Parc, , ,0, ,Montréal,H9C 1H5,L'Île-Bizard–Sainte-Geneviève,niveau 3,-73.884274229,45.4923796900001
430,Récréatif / sportif,Parc et autre espace vert,Parc Marcelin,,Parc, , ,0, ,Montréal,H9C 3A5,L'Île-Bizard–Sainte-Geneviève,niveau 3,-73.864807129,45.5076560970001
431,Récréatif / sportif,Parc et autre espace vert,Parc Richelieu,,Parc, , ,0, ,Montréal,H9H 3P4,L'Île-Bizard–Sainte-Geneviève,niveau 3,-73.87298199,45.4740313950001
432,Récréatif / sportif,Parc et autre espace vert,Parc Riviera,,Parc, , ,0, ,Montréal,H9C 1K4,L'Île-Bizard–Sainte-Geneviève,niveau 3,-73.872534997,45.516947214
433,Récréatif / sportif,Parc et autre espace vert,Parc Robert-Sauvé,,Parc, , ,0, ,Montréal,H9H 1G4,L'Île-Bizard–Sainte-Geneviève,niveau 2,-73.8664779659999,45.480937958
434,Récréatif / sportif,Parc et autre espace vert,Parc Saint-Malo,,Parc, , ,0, ,Montréal,H9C 2P1,L'Île-Bizard–Sainte-Geneviève,niveau 3,-73.866851807,45.50340271
435,Récréatif / sportif,Parc et autre espace vert,Parc Saint-Pierre,,Parc, , ,0, ,Montréal,H9H 1B5,L'Île-Bizard–Sainte-Geneviève,niveau 4,-73.861066926,45.486569866
436,Récréatif / sportif,Parc et autre espace vert,Terrasse Sacré-Cœur,,Parc, , ,0, ,Montréal,H9E 1B8,L'Île-Bizard–Sainte-Geneviève,niveau 4,-73.879821777,45.4804344180001
437,Récréatif / sportif,Parc et autre espace vert,Parc Martin,,Parc, , ,0, ,Montréal,H9E 1K5,L'Île-Bizard–Sainte-Geneviève,niveau 4,-73.906341553,45.5065383910001
438,Récréatif / sportif,Parc et autre espace vert,Parc Triolet,,Parc, , ,0, ,Montréal,H9C 2W4,L'Île-Bizard–Sainte-Geneviève,niveau 3,-73.867591858,45.506008148
439,Récréatif / sportif,Parc et autre espace vert,Aire de repos de l'Église-Bord-du-Lac,,Parc, , ,0, ,Montréal,H9E 1A7,L'Île-Bizard–Sainte-Geneviève,niveau 3,-73.903572083,45.507499695
440,Récréatif / sportif,Équipement sportif et récréatif,Centre Robert-Sauvé,,Équipement sportif extérieur, , ,0, ,Montréal,H9H 1G4,L'Île-Bizard–Sainte-Geneviève,niveau 4,-73.866678366,45.481348966
441,Récréatif / sportif,Équipement sportif et récréatif,Piscine de Sainte-Geneviève,,Piscine extérieure,15734,Rue de la Caserne,0, ,Montréal,H9H 1G4,L'Île-Bizard–Sainte-Geneviève,niveau 3,-73.866678366,45.481348966
442,Récréatif / sportif,Équipement communautaire,Chalets Scouts,,Organisme communautaire et centre de loisirs,510,Montée de l’Église,0, ,Montréal,H9C 1H1,L'Île-Bizard–Sainte-Geneviève,niveau 4,-73.882246106,45.4883959800001
443,Culturel,Bibliothèque,Bibliothèque de l'Île-Bizard,,Bibliothèque publique,500,Montée de l’Église,0, ,Montréal,H9C 1G9,L'Île-Bizard–Sainte-Geneviève,niveau 1,-73.882307391,45.488626013
444,Récréatif / sportif,Parc et autre espace vert,Aire de repos Cherrier-Jacques-Bizard,,Parc, , ,0, ,Montréal,H9C,L'Île-Bizard–Sainte-Geneviève,niveau 4,-73.871353149,45.49105072
445,Service public,Établissement scolaire,Collège Gérald-Godin,,Cégep et université,15615,Boulevard Gouin Ouest,0, ,Montréal,H9H 5K8,L'Île-Bizard–Sainte-Geneviève,niveau 1,-73.868602271,45.483678119
446,Récréatif / sportif,Équipement sportif et récréatif,Complexe sportif Saint-Raphaël,,Centre sportif intérieur,750,Boulevard Jacques-Bizard,0, ,Montréal,H9C 2Y2,L'Île-Bizard–Sainte-Geneviève,niveau 3,-73.877570986,45.502638039
448,Service public,Établissement scolaire,École Jacques-Bizard,,École primaire,515,Montée de l’Église,0, ,Montréal,H9C 1H1,L'Île-Bizard–Sainte-Geneviève,niveau 4,-73.881170904,45.4889622900001
449,Service public,Établissement scolaire,École primaire Jonathan-Wilson,,École primaire,3243,Boulevard Chevremont,0, ,Montréal,H9C 2J1,L'Île-Bizard–Sainte-Geneviève,niveau 4,-73.870796204,45.500263214
450,Service public,Établissement scolaire,École Sainte-Geneviève (Ouest),,École primaire,35,Rue Sainte-Anne,0, ,Montréal,H9H 2Z2,L'Île-Bizard–Sainte-Geneviève,niveau 4,-73.8719387049999,45.477847936
451,Culturel,Lieu de diffusion,Centre socioculturel et point de service,Centre socioculturel,Théâtre / salle de spectacle / petit lieu de diffusion,490,Montée de l’Église,0, ,Montréal,H9C 1G9,L'Île-Bizard–Sainte-Geneviève,niveau 3,-73.8816447689999,45.4881635630001
452,Récréatif / sportif,Parc et autre espace vert,Aire de repos Île-Mercier,,Parc, , ,0, ,Montréal,H9E 1H2,L'Île-Bizard–Sainte-Geneviève,niveau 4,-73.874996268,45.4842405000001
453,Culturel,Bâtiment et lieu d'intérêt,Église Saint-Raphaël-l'Archange,,Bâtiment historique / patrimonial,495,Rue Cherrier,0, ,Montréal,H9C 1G4,L'Île-Bizard–Sainte-Geneviève,niveau 4,-73.879516602,45.4871635440001
455,Récréatif / sportif,Parc et autre espace vert,Aire de repos Legault,,Parc, , ,0, ,Montréal,H9E 1E8,L'Île-Bizard–Sainte-Geneviève,niveau 4,-73.8868331909999,45.480800629
456,Culturel,Bâtiment et lieu d'intérêt,L'ancien couvent des Sœurs de Sainte-Anne,,Bâtiment historique / patrimonial,16115,Boulevard Gouin Ouest,0, ,Montréal,H9H 1C7,L'Île-Bizard–Sainte-Geneviève,niveau 4,-73.873146057,45.4796638490001
457,Culturel,Bâtiment et lieu d'intérêt,L'ancien noviciat des Pères de Sainte-Croix (Collège Gérald-Godin),L'ancien noviciat des Pères de Sainte-Croix,Bâtiment historique / patrimonial,15615,Boulevard Gouin Ouest,0, ,Montréal,H9H 5K8,L'Île-Bizard–Sainte-Geneviève,niveau 4,-73.869326498,45.4834072200001
458,Récréatif / sportif,Équipement sportif et récréatif,Pavillon Vincent-Lecavalier,,Centre sportif intérieur,488,Montée de l’Église,0, ,Montréal,H9E 1B5,L'Île-Bizard–Sainte-Geneviève,niveau 3,-73.8832373289999,45.4876168850001
459,Culturel,Lieu de diffusion,Salle Pauline-Julien,,Lieu de diffusion municipal,15615,Boulevard Gouin Ouest,0, ,Montréal,H9H 5K8,L'Île-Bizard–Sainte-Geneviève,niveau 1,-73.869001165,45.4833439880001
460,Service public,Service municipal,Mairie d'arrondissement et point de services de l'Île-Bizard–Sainte-Geneviève,Mairie d'arrondissement,Hôtel de ville / mairie,350,Montée de l’Église,0, ,Montréal,H9C 1G9,L'Île-Bizard–Sainte-Geneviève,niveau 1,-73.880183579,45.487054905
461,Service public,Service municipal,Point de service de L'Île-Bizard-Sainte-Geneviève,,Bureau Accès Montréal et bureaux municipaux,13,Rue Chauret,0, ,Montréal,H9H  2X2,L'Île-Bizard–Sainte-Geneviève,niveau 2,-73.868712546,45.481191876
462,Service public,Service municipal,Sécurité publique,,Service communautaire,350,Montée de l’Église,0, ,Montréal,H9C 1G9,L'Île-Bizard–Sainte-Geneviève,niveau 3,-73.880243922,45.487018515
463,Service public,Service d'urgence,Caserne 56,,Caserne de pompiers,230,Boulevard Chèvremont,0, ,Montréal,H9C 2L1,L'Île-Bizard–Sainte-Geneviève,niveau 4,-73.876386031,45.4934475590001
464,Récréatif / sportif,Équipement communautaire,Grenier Saint-Raphaël,,Organisme communautaire et centre de loisirs,571,Rue Cherrier,0, ,Montréal,H9E 1J7,L'Île-Bizard–Sainte-Geneviève,niveau 3,-73.880854067,45.4854677290001
465,Service public,Service d'urgence,Poste de quartier 8,,Police de quartier,170,15e Avenue,0, ,Montréal,H8S 3L9,Lachine,niveau 3,-73.677182911,45.4344369140001
466,Récréatif / sportif,Équipement communautaire,Centre communautaire Albert-Gariépy,,Organisme communautaire et centre de loisirs,800,Rue Sherbrooke,0, ,Montréal,H8S 1H2,Lachine,niveau 3,-73.670967102,45.4452629090001
467,Culturel,Bâtiment et lieu d'intérêt,Maison Jean-Gabriel-Picard,,Bâtiment historique / patrimonial,5430,Boulevard Saint-Joseph,0, ,Montréal,H8T 1S5,Lachine,niveau 4,-73.717010498,45.4387969970001
468,Culturel,Bâtiment et lieu d'intérêt,Maison Quesnel,,Bâtiment historique / patrimonial,5010,Boulevard Saint-Joseph,0, ,Montréal,H8T 1S1,Lachine,niveau 4,-73.711593628,45.43649292
469,Commercial,Regroupement de commerces,Marché de Lachine,,Marché public,1865,Rue Notre Dame Ouest,0, ,Montréal,H8S 2G2,Lachine,niveau 1,-73.680221558,45.4349861150001
471,Culturel,Établissement culturel,Musée de Lachine,,Musée municipal,1,Chemin du Musée,0, ,Montréal,H8S 4L9,Lachine,niveau 1,-73.66649365,45.4296336030001
472,Culturel,Art public,Musée plein air Lachine,,Art public, , ,0, ,Montréal, ,Lachine,niveau 3,-73.675888062,45.428100586
473,Récréatif / sportif,Parc et autre espace vert,Parc Albert-Gariépy,,Parc, , ,0, ,Montréal,H8S 3C7,Lachine,niveau 3,-73.67111969,45.4463920590001
474,Récréatif / sportif,Parc et autre espace vert,Parc Brewster,,Parc, , ,0, ,Montréal, ,Lachine,niveau 3,-73.704940441,45.437148296
475,Récréatif / sportif,Parc et autre espace vert,Parc Carignan,,Parc, , ,0, ,Montréal, ,Lachine,niveau 2,-73.7020568849999,45.4435005190001
476,Récréatif / sportif,Parc et autre espace vert,Parc Curé-Provost,,Parc, , ,0, ,Montréal,H8S 2T5,Lachine,niveau 3,-73.666236877,45.44222641
477,Récréatif / sportif,Parc et autre espace vert,Parc La Renaissance,,Parc, , ,0, ,Montréal, ,Lachine,niveau 3,-73.689819336,45.4458618160001
478,Récréatif / sportif,Parc et autre espace vert,Parc des Saules,,Parc, , ,0, ,Montréal,H8S 4B7,Lachine,niveau 4,-73.686553955,45.4339065550001
479,Récréatif / sportif,Parc et autre espace vert,Parc Dixie,,Parc, , ,0, ,Montréal,H8T 3A2,Lachine,niveau 2,-73.718254089,45.4432296750001
480,Récréatif / sportif,Parc et autre espace vert,Parc Duff Court,,Parc, , ,0, ,Montréal,H8S 1G3,Lachine,niveau 2,-73.680428142,45.4469688040001
481,Récréatif / sportif,Parc et autre espace vert,Parc Elm,,Parc, , ,0, ,Montréal,H8R 1G1,Lachine,niveau 3,-73.640260879,45.447084977
482,Récréatif / sportif,Parc et autre espace vert,Parc du Fort-Rolland,,Parc, , ,0, ,Montréal, ,Lachine,niveau 2,-73.6992950439999,45.4348891380001
483,Récréatif / sportif,Parc et autre espace vert,Parc Francis-Daoust,,Parc, , ,0, ,Montréal,H8S 2T2,Lachine,niveau 3,-73.664970209,45.43988804
484,Récréatif / sportif,Parc et autre espace vert,Parc Grovehill,,Parc, , ,0, ,Montréal, ,Lachine,niveau 2,-73.694610596,45.4406623840001
485,Récréatif / sportif,Parc et autre espace vert,Parc Harry-Ross,,Parc, , ,0, ,Montréal,H8T 1E7,Lachine,niveau 3,-73.712713304,45.447921604
486,Récréatif / sportif,Parc et autre espace vert,Parc Ivan-Franko,,Parc, , ,0, ,Montréal,H8T 1Z5,Lachine,niveau 3,-73.6940765379999,45.4375686650001
487,Récréatif / sportif,Parc et autre espace vert,Parc John-Grant,,Parc, , ,0, ,Montréal, ,Lachine,niveau 3,-73.6982040409999,45.436531067
488,Récréatif / sportif,Parc et autre espace vert,Parc Kirkland,,Parc, , ,0, ,Montréal,H8R 1N3,Lachine,niveau 2,-73.649857158,45.4459594800001
489,Récréatif / sportif,Parc et autre espace vert,Parc LaSalle,,Parc, , ,0, ,Montréal,H8S 1W4,Lachine,niveau 2,-73.675265576,45.4382528180001
490,Récréatif / sportif,Parc et autre espace vert,Parc Monk,,Parc, , ,0, ,Montréal, ,Lachine,niveau 3,-73.670455072,45.4309676390001
491,Récréatif / sportif,Parc et autre espace vert,Parc Patterson,,Parc, , ,0, ,Montréal,H8S 1R5,Lachine,niveau 3,-73.691177368,45.4408531190001
492,Récréatif / sportif,Parc et autre espace vert,Parc Pelletier,,Parc, , ,0, ,Montréal,H8S 2M2,Lachine,niveau 3,-73.672409081,45.4315713330001
493,Récréatif / sportif,Parc et autre espace vert,Parc Ranger,,Parc, , ,0, ,Montréal, ,LaSalle,niveau 4,-73.666639162,45.428913149
494,Récréatif / sportif,Parc et autre espace vert,Parc Rathwell,,Parc, , ,0, ,Montréal,H8S 1K6,Lachine,niveau 3,-73.689086867,45.4435558860001
495,Récréatif / sportif,Parc et autre espace vert,Parc René-Lévesque,,Parc, , ,0, ,Montréal, ,Lachine,niveau 1,-73.681427002,45.4285736080001
496,Récréatif / sportif,Parc et autre espace vert,Parc Roger Richer,,Parc, , ,0, ,Montréal,H8R 1E8,Lachine,niveau 3,-73.6499786379999,45.4423866270001
497,Récréatif / sportif,Parc et autre espace vert,Parc Rosewood,,Parc, , ,0, ,Montréal,H8R 1J4,Lachine,niveau 3,-73.652331698,45.4497404850001
498,Récréatif / sportif,Parc et autre espace vert,Parc Sainte-Anne,,Parc, , ,0, ,Montréal,H8S 1P8,Lachine,niveau 3,-73.6848907469999,45.44165802
499,Récréatif / sportif,Parc et autre espace vert,Parc Saint-Louis,,Parc, , ,0, ,Montréal, ,Lachine,niveau 2,-73.693277684,45.432917526
500,Récréatif / sportif,Parc et autre espace vert,Parc Stoney Point,,Parc, , ,0, ,Montréal, ,Lachine,niveau 2,-73.705581665,45.4356536870001
501,Récréatif / sportif,Parc et autre espace vert,Parc Summerlea,,Parc, , ,0, ,Montréal,H8T 1S3,Lachine,niveau 2,-73.7169113159999,45.4381103520001
502,Récréatif / sportif,Parc et autre espace vert,Parc du Village-Saint-Louis,,Parc, , ,0, ,Montréal,H8T 3N4,Lachine,niveau 4,-73.696151733,45.4440460210001
503,Récréatif / sportif,Parc et autre espace vert,Parc Wilfrid-Vincent,,Parc, , ,0, ,Montréal,H8R 1B9,Lachine,niveau 3,-73.6528701779999,45.4438705440001
504,Récréatif / sportif,Parc et autre espace vert,Parc Catherine-Soumillard,,Parc, , ,0, ,Montréal, ,Lachine,niveau 3,-73.708335876,45.4406623840001
505,Récréatif / sportif,Parc et autre espace vert,Parc-école Dalbé-Viau,,Parc, , ,0, ,Montréal, ,Lachine,niveau 3,-73.6786346439999,45.444625854
506,Récréatif / sportif,Parc et autre espace vert,Parc-école Lakeside Academy,,Parc, , ,0, ,Montréal, ,Lachine,niveau 3,-73.713935852,45.4469223020001
507,Récréatif / sportif,Parc et autre espace vert,Parc-école Meadowbrook,,Parc, , ,0, ,Montréal,H8T 2Y8,Lachine,niveau 3,-73.714912415,45.4438591000001
508,Récréatif / sportif,Équipement sportif et récréatif,Aréna Martin-Lapointe,,Centre sportif intérieur,183,Rue des Érables,0, ,Montréal,H8R 1N3,Lachine,niveau 3,-73.651770542,45.446017914
509,Récréatif / sportif,Équipement sportif et récréatif,Aréna Pierre « Pete » Morin,,Centre sportif intérieur,1925,Rue Saint-Antoine Ouest,0, ,Montréal,H8S 1V5,Lachine,niveau 3,-73.6818958119999,45.43953487
510,Service public,Établissement scolaire,Centre d’éducation des adultes de LaSalle,,École secondaire et professionnelle,1625,Rue Saint-Antoine,0, ,Montréal,H8S 1T8,Lachine,niveau 3,-73.678291321,45.4397277830001
511,Service public,Établissement scolaire,Centre d’électrotechnologie Pearson,,École secondaire et professionnelle,5000,Rue René-Huguet,0, ,Montréal,H8T 1M7,Lachine,niveau 3,-73.711945476,45.441991972
512,Service public,Établissement scolaire,Centre de formation professionnelle (CFP) de Lachine (édifice Dalbé-Viau),CFP de Lachine (Dalbé-Viau),École secondaire et professionnelle,750,Rue Esther Blondin,0, ,Montréal,H8S 4C4,Lachine,niveau 3,-73.679298401,45.44317627
513,Service public,Établissement scolaire,Centre de formation professionnelle (CFP) de Lachine (édifice de la Rive),CFP de Lachine (la Rive),École secondaire et professionnelle,46,16e Avenue,0, ,Montréal,H8S 3M4,Lachine,niveau 3,-73.678535461,45.4329528810001
514,Service public,Service de santé,Centre hospitalier de Lachine (urgence 24 h),Centre hospitalier de Lachine,Hôpital,650,16e Avenue,0, ,Montréal,H8S 3N5,Lachine,niveau 1,-73.677429199,45.4408798220001
515,Récréatif / sportif,Équipement sportif et récréatif,Centre récréatif Lachine Ouest,,Centre sportif intérieur,4070,Rue Victoria,0, ,Montréal, ,Lachine,niveau 3,-73.702232361,45.440746307
516,Culturel,Bibliothèque,Bibliothèque de Saint-Pierre,,Bibliothèque publique,183,Rue des Érables,0, ,Montréal,H8R 1B1,Lachine,niveau 1,-73.651588095,45.445670228
517,Service public,Service de santé,CLSC de Dorval – Lachine,,CLSC,1900,Rue Notre Dame Ouest,0, ,Montréal,H8S 2G2,Lachine,niveau 2,-73.681282043,45.4353561400001
518,Récréatif / sportif,Équipement communautaire,Centre communautaire Saint-Pierre,,Organisme communautaire et centre de loisirs,69,Avenue Saint-Pierre,0, ,Montréal,H8R 1E5,Lachine,niveau 3,-73.649006995,45.444149925
519,Service public,Établissement scolaire,Collège Sainte-Anne,,École secondaire et professionnelle,1250,Boulevard Saint-Joseph,0, ,Montréal,H8S 2M8,Lachine,niveau 4,-73.675803802,45.432281307
520,Service public,Établissement scolaire,Collège Saint-Louis,,École secondaire et professionnelle,275,36e Avenue,0, ,Montréal,H8T 3G3,Lachine,niveau 3,-73.69741176,45.4364387890001
521,Culturel,Bibliothèque,Bibliothèque Saul-Bellow,,Bibliothèque publique,3100,Rue Saint-Antoine Ouest,0, ,Montréal,H8S 4E3,Lachine,niveau 1,-73.691830747,45.440056354
522,Service public,Établissement scolaire,École Dalbé-Viau,,École secondaire et professionnelle,740,Rue Esther-Blondin,0, ,Montréal,H8S 4C4,Lachine,niveau 3,-73.678985596,45.442775726
523,Service public,Établissement scolaire,École Jardin des Saints-Anges,,École primaire,1225,Rue Saint-Louis,0, ,Montréal,H8S 2K6,Lachine,niveau 4,-73.674974741,45.4333674230001
524,Service public,Établissement scolaire,École Maple Grove Elementary School,,École primaire,740,52e Avenue,0, ,Montréal,H8T 2X6,Lachine,niveau 4,-73.715758449,45.444484318
525,Service public,Établissement scolaire,École Martin-Bélanger,,École primaire,29,Avenue Ouellette,0, ,Montréal,H8R 1L4,Lachine,niveau 4,-73.645101117,45.4458827540001
526,Service public,Établissement scolaire,École Paul-Jarry,,École primaire,676,11e Avenue,0, ,Montréal,H8S 3G9,Lachine,niveau 4,-73.673640214,45.4416179690001
527,Service public,Établissement scolaire,École Philippe-Morin,,École primaire,1825,Rue Provost,0, ,Montréal,H8S 1P5,Lachine,niveau 4,-73.680773707,45.4417154170001
528,Service public,Établissement scolaire,École Très-Saint-Sacrement,,École primaire,704,5e Avenue,0, ,Montréal,H8S 2W4,Lachine,niveau 4,-73.668257815,45.4422344180001
529,Service public,Établissement scolaire,École Victor-Thérien,,École primaire,305,43e Avenue,0, ,Montréal,H8T 1V2,Lachine,niveau 4,-73.703469193,45.437517348
530,Culturel,Bâtiment et lieu d'intérêt,Cimetière Catholique de Lachine,,Bâtiment historique / patrimonial,260,Rue Provost,0, ,Montréal,H8T,Lachine,niveau 4,-73.683800582,45.442929378
531,Culturel,Bâtiment et lieu d'intérêt,Couvent Mont-Sainte-Anne,,Bâtiment historique / patrimonial,1950,Rue Provost,0, ,Montréal,H8S 1P7,Lachine,niveau 4,-73.681919326,45.4427886890001
532,Service public,Établissement scolaire,Lakeside Academy,,École secondaire et professionnelle,5050,Rue Sherbrooke,0, ,Montréal,H8T 1H8,Lachine,niveau 3,-73.713745836,45.4456631850001
534,Culturel,Bâtiment et lieu d'intérêt,La Maison du brasseur,,Bâtiment historique / patrimonial,2901 ,Boulevard Saint-Joseph,0, ,Montréal,H8S 4B7,Lachine,niveau 4,-73.6899335649999,45.433376315
535,Culturel,Bâtiment et lieu d'intérêt,La Vieille brasserie,,Bâtiment historique / patrimonial,2801,Boulevard Saint-Joseph,0, ,Montréal,H8S 4B7,Lachine,niveau 4,-73.688697815,45.4334373470001
536,Culturel,Lieu de diffusion,L'Entrepôt - Complexe culturel Guy-Descary,L'Entrepôt,Lieu de diffusion municipal,2875,Boulevard Saint-Joseph,0, ,Montréal,H8S 4B7,Lachine,niveau 1,-73.6895280479999,45.4334579380001
537,Culturel,Bâtiment et lieu d'intérêt,Lieu historique national du Canada du Commerce-de-la-Fourrure-à-Lachine,Commerce-de-la-Fourrure-à-Lachine,Bâtiment historique / patrimonial,1255 ,Boulevard Saint-Joseph,0, ,Montréal,H8S 2M2,Lachine,niveau 1,-73.675605774,45.4314460750001
538,Récréatif / sportif,Parc et autre espace vert,Place S.-D.-Gameroff,,Parc, , ,0, ,Montréal,H8T 3G5,Lachine,niveau 3,-73.697639465,45.4393882750001
539,Récréatif / sportif,Équipement sportif et récréatif,Port de plaisance,,Marina,1800,Chemin des Iroquois,0, ,Montréal,H8S 4J5,Lachine,niveau 3,-73.676131746,45.4295505970001
540,Récréatif / sportif,Parc et autre espace vert,Promenade du Rail,,Parc, , ,0, ,Montréal, ,Lachine,niveau 4,-73.675876797,45.4365138630001
541,Récréatif / sportif,Parc et autre espace vert,Promenade Père-Marquette,,Parc, , ,0, ,Montréal, ,Lachine,niveau 2,-73.678749084,45.431838989
542,Récréatif / sportif,Équipement communautaire,Centre Fernand-Laplaine,,Organisme communautaire et centre de loisirs,183,Rue des Érables,0, ,Montréal,H8R 1N3,Lachine,niveau 3,-73.651517286,45.445752462
544,Service public,Information touristique,Centre de services aux visiteurs du Canal-de-Lachine,,Bureau d'information touristique,500,Chemin des Iroquois,0, ,Montréal,H8S 4J5,Lachine,niveau 3,-73.667945862,45.4309959410001
545,Service public,Service municipal,Mairie d’arrondissement de Montréal-Nord,Mairie d’arrondissement,Hôtel de ville / mairie,4242,Place de l'Hôtel-de-Ville,0, ,Montréal,H1H 5R5,Montréal-Nord,niveau 1,-73.6378097529999,45.5941123960001
548,Récréatif / sportif,Équipement communautaire,Club d’aviron Lachine,,Organisme communautaire et centre de loisirs,2801,Boulevard Saint-Joseph,0, ,Montréal,H8S 4B7,Lachine,niveau 4,-73.688255797,45.4334998470001
549,Récréatif / sportif,Équipement communautaire,Club de canoë de course,,Organisme communautaire et centre de loisirs,2105,Boulevard Saint-Joseph,0, ,Montréal,H8S 2N7,Lachine,niveau 4,-73.684203643,45.4327829320001
550,Récréatif / sportif,Équipement communautaire,Club des chasseurs et pêcheurs,,Organisme communautaire et centre de loisirs,3051,Boulevard Saint-Joseph,0, ,Montréal,H8S 4B7,Lachine,niveau 4,-73.6913951829999,45.4333897720001
